City_ID,City,Lat,Lng,Max Temp,Humidity,Cloudiness,Wind Speed,Country,Date
0,weisswasser,51.5167,14.6333,5.88,72,71,3.84,DE,12-18-2023
1,nova sintra,14.8667,-24.7167,21.92,66,99,5.51,CV,12-18-2023
2,fairborn,39.8209,-84.0194,3.36,74,75,11.32,US,12-18-2023
3,puerto ayora,-0.7393,-90.3518,28.98,91,80,2.68,EC,12-18-2023
4,nagqu,31.5,92.0,-22.78,80,0,1.37,CN,12-18-2023
5,funafuti,-8.5243,179.1942,27.0,89,40,0.0,TV,12-18-2023
6,mejit,10.2753,170.8646,26.93,78,43,11.46,MH,12-18-2023
7,grytviken,-54.2811,-36.5092,3.28,71,15,1.9,GS,12-18-2023
8,adamstown,-25.066,-130.1015,22.67,80,100,7.04,PN,12-18-2023
9,edinburgh of the seven seas,-37.0676,-12.3116,14.47,71,9,5.74,SH,12-18-2023
10,upington,-28.4478,21.2561,38.21,6,20,5.66,ZA,12-18-2023
11,bredasdorp,-34.5322,20.0403,19.63,52,17,5.93,ZA,12-18-2023
12,kuta,-8.7233,115.1723,26.97,74,20,1.54,ID,12-18-2023
13,invercargill,-46.4,168.35,7.91,89,99,1.76,NZ,12-18-2023
14,arno,60.1167,18.6333,2.66,97,68,4.42,SE,12-18-2023
15,port-aux-francais,-49.35,70.2167,6.21,88,100,15.51,TF,12-18-2023
16,olonkinbyen,70.9221,-8.7187,-2.81,76,100,4.87,SJ,12-18-2023
17,bilibino,68.0546,166.4372,-33.54,99,99,0.38,RU,12-18-2023
18,terenozek,45.05,64.9833,2.37,89,100,6.8,KZ,12-18-2023
19,gamba,-2.65,10.0,27.2,81,92,2.93,GA,12-18-2023
20,yellowknife,62.456,-114.3525,-14.21,89,100,4.92,CA,12-18-2023
21,codrington,-38.2667,141.9667,13.31,93,35,5.34,AU,12-18-2023
22,avarua,-21.2078,-159.775,24.03,88,75,5.14,CK,12-18-2023
23,stanley,54.868,-1.6985,12.93,88,75,8.23,GB,12-18-2023
24,hawaiian paradise park,19.5933,-154.9731,19.73,98,100,0.0,US,12-18-2023
25,bethel,41.3712,-73.414,16.36,87,100,3.6,US,12-18-2023
26,badger,64.8,-147.5333,-12.02,88,100,0.0,US,12-18-2023
27,papatowai,-46.5619,169.4708,10.44,72,100,1.01,NZ,12-18-2023
28,waitangi,-43.9535,-176.5597,11.57,74,13,5.45,NZ,12-18-2023
29,nantucket,41.2835,-70.0995,14.06,94,100,14.92,US,12-18-2023
30,el calafate,-50.3408,-72.2768,14.03,53,51,4.31,AR,12-18-2023
31,newman,37.3138,-121.0208,10.19,88,88,2.56,US,12-18-2023
32,nemuro,43.3236,145.575,-5.85,68,12,9.58,JP,12-18-2023
33,prince rupert,54.3161,-130.3201,4.83,97,100,3.6,CA,12-18-2023
34,hafar al-batin,28.4328,45.9708,17.32,34,0,2.06,SA,12-18-2023
35,st. john's,47.5649,-52.7093,6.66,73,75,8.75,CA,12-18-2023
36,loukhi,66.0764,33.0381,-8.72,92,49,3.04,RU,12-18-2023
37,santiago citendeje,19.7814,-99.9292,12.97,35,31,1.1,MX,12-18-2023
38,punta arenas,-53.15,-70.9167,15.06,55,0,10.8,CL,12-18-2023
39,whitehorse,60.7161,-135.0538,-10.57,73,20,2.06,CA,12-18-2023
40,labytnangi,66.6572,66.4183,-14.97,96,100,5.1,RU,12-18-2023
41,thompson,55.7435,-97.8558,-16.91,85,100,2.06,CA,12-18-2023
42,margaret river,-33.95,115.0667,15.28,60,100,7.49,AU,12-18-2023
43,mitu,1.1983,-70.1733,27.66,84,100,0.62,CO,12-18-2023
44,dong ha,16.8163,107.1003,20.26,92,99,1.5,VN,12-18-2023
45,chinchani,19.8667,72.7,25.66,55,94,5.46,IN,12-18-2023
46,puerto natales,-51.7236,-72.4875,16.25,39,0,8.23,CL,12-18-2023
47,aroma,15.8167,36.1333,30.18,26,17,4.68,SD,12-18-2023
48,praia da vitoria,38.7333,-27.0667,18.2,100,75,5.61,PT,12-18-2023
49,utrik,11.2278,169.8474,26.65,76,10,11.17,MH,12-18-2023
50,akureyri,65.6835,-18.0878,-1.04,93,100,0.0,IS,12-18-2023
51,jamestown,42.097,-79.2353,3.64,95,100,8.23,US,12-18-2023
52,west island,-12.1568,96.8225,26.99,69,40,3.6,CC,12-18-2023
53,talnakh,69.4865,88.3972,-12.66,84,100,7.79,RU,12-18-2023
54,kitui,-1.367,38.0106,19.09,92,88,2.15,KE,12-18-2023
55,hermanus,-34.4187,19.2345,19.89,60,7,5.82,ZA,12-18-2023
56,hereford,52.0568,-2.7148,13.45,92,100,1.79,GB,12-18-2023
57,albany,42.6001,-73.9662,11.41,90,100,1.34,US,12-18-2023
58,haiku-pauwela,20.9219,-156.3051,21.13,85,0,4.12,US,12-18-2023
59,bad belzig,52.1333,12.6,5.72,80,89,3.86,DE,12-18-2023
60,tidjikja,18.5564,-11.4271,20.6,11,77,10.54,MR,12-18-2023
61,qaqortoq,60.7167,-46.0333,-5.16,92,100,1.64,GL,12-18-2023
62,ribeira grande,38.5167,-28.7,18.22,82,75,8.05,PT,12-18-2023
63,borba,-4.3878,-59.5939,34.07,52,50,0.63,BR,12-18-2023
64,elazig,38.6743,39.2232,-2.17,74,0,3.09,TR,12-18-2023
65,dudinka,69.4058,86.1778,-12.43,83,100,13.41,RU,12-18-2023
66,wenzhou,27.9994,120.6668,8.05,81,100,2.82,CN,12-18-2023
67,howrah,22.5892,88.3103,18.0,68,20,0.0,IN,12-18-2023
68,hamilton,39.1834,-84.5333,3.66,82,100,11.32,US,12-18-2023
69,blackmans bay,-43.0167,147.3167,14.18,94,100,1.34,AU,12-18-2023
70,yarmouth,41.7057,-70.2286,16.08,94,100,11.32,US,12-18-2023
71,manokwari,-0.8667,134.0833,26.18,85,95,3.19,ID,12-18-2023
72,pangody,65.85,74.4859,-13.32,91,100,10.36,RU,12-18-2023
73,haradok,55.4624,29.9816,1.59,100,100,3.69,BY,12-18-2023
74,vorgashor,67.5833,63.95,-19.76,92,43,5.59,RU,12-18-2023
75,reyes,-14.3167,-67.3833,33.09,58,40,3.09,BO,12-18-2023
76,boa vista,2.8197,-60.6733,32.99,46,75,3.6,BR,12-18-2023
77,port elizabeth,-33.918,25.5701,21.29,84,75,6.69,ZA,12-18-2023
78,sajir,25.1825,44.5996,17.56,24,68,2.52,SA,12-18-2023
79,belmonte,-15.8631,-38.8828,28.78,61,24,4.47,BR,12-18-2023
80,fort bragg,35.139,-79.006,13.82,57,0,3.58,US,12-18-2023
81,al jawf,29.5,38.75,15.65,31,52,2.57,SA,12-18-2023
82,hami,42.8,93.45,-12.82,59,3,3.23,CN,12-18-2023
83,iskateley,67.6803,53.1512,-13.32,91,100,8.49,RU,12-18-2023
84,trincomalee,8.5711,81.2335,26.52,85,100,6.53,LK,12-18-2023
85,atafu village,-8.5421,-172.5159,29.03,74,60,4.56,TK,12-18-2023
86,patterson,37.4716,-121.1297,9.5,84,92,2.54,US,12-18-2023
87,kapa'a,22.0752,-159.319,21.18,89,40,8.23,US,12-18-2023
88,swainsboro,32.5974,-82.3337,11.94,62,0,5.66,US,12-18-2023
89,tsiombe,-25.3,45.4833,24.59,69,1,4.96,MG,12-18-2023
90,ghat,24.9647,10.1728,20.77,17,9,4.97,LY,12-18-2023
91,ust-nera,64.5667,143.2,-37.45,98,85,1.45,RU,12-18-2023
92,anadyr,64.75,177.4833,-20.72,84,60,5.0,RU,12-18-2023
93,klaksvik,62.2266,-6.589,4.51,75,54,22.04,FO,12-18-2023
94,ushuaia,-54.8,-68.3,15.79,70,49,1.69,AR,12-18-2023
95,jinchang,38.4953,102.1739,-12.35,81,3,1.03,CN,12-18-2023
96,stornoway,58.2093,-6.3865,6.98,90,40,7.72,GB,12-18-2023
97,aral,40.5156,81.2636,-3.82,43,0,1.61,CN,12-18-2023
98,ketchikan,55.3422,-131.6461,2.99,93,100,1.54,US,12-18-2023
99,le port,-20.9373,55.2919,28.0,89,100,1.63,RE,12-18-2023
100,itupiranga,-5.1347,-49.3267,27.18,51,68,2.27,BR,12-18-2023
101,choibalsan,48.0667,114.5,-27.15,97,98,2.43,MN,12-18-2023
102,yelizovo,53.1873,158.3805,-1.92,50,75,10.0,RU,12-18-2023
103,plouzane,48.3833,-4.6167,12.03,85,100,5.14,FR,12-18-2023
104,polyarnyy,69.1989,33.4478,-4.07,84,26,9.11,RU,12-18-2023
105,hirara,24.8,125.2833,20.15,88,100,2.06,JP,12-18-2023
106,buala,-8.145,159.5921,24.83,80,77,1.98,SB,12-18-2023
107,hotan,37.0997,79.9269,-1.16,38,0,2.51,CN,12-18-2023
108,xingcheng,40.6167,120.7167,-14.17,92,26,2.57,CN,12-18-2023
109,paso de los libres,-29.7131,-57.0899,23.02,94,100,10.29,AR,12-18-2023
110,ta`u,-14.2336,-169.5144,27.02,80,100,3.81,AS,12-18-2023
111,privolzhsk,57.3808,41.2886,-2.16,92,100,4.4,RU,12-18-2023
112,kralendijk,12.15,-68.2667,29.99,74,75,7.2,BQ,12-18-2023
113,panaba,21.2833,-88.2667,23.93,51,60,4.98,MX,12-18-2023
114,gulf shores,30.246,-87.7008,13.52,70,0,2.57,US,12-18-2023
115,opuwo,-18.0607,13.84,32.75,23,100,5.18,NA,12-18-2023
116,kailua-kona,19.6406,-155.9956,21.44,79,0,1.54,US,12-18-2023
117,rundu,-17.9333,19.7667,26.62,51,93,1.53,NA,12-18-2023
118,cabo san lucas,22.8909,-109.9124,25.42,52,0,1.54,MX,12-18-2023
119,harper,4.375,-7.7169,29.0,66,7,4.07,LR,12-18-2023
120,susuman,62.7833,148.1667,-34.33,100,94,0.3,RU,12-18-2023
121,la ronge,55.1001,-105.2842,-3.86,63,20,3.09,CA,12-18-2023
122,port mathurin,-19.6833,63.4167,26.5,82,25,7.88,MU,12-18-2023
123,sinabang,2.4803,96.3801,26.14,84,100,0.94,ID,12-18-2023
124,mocimboa,-11.3167,40.35,28.28,73,45,4.86,MZ,12-18-2023
125,mountain home,43.133,-115.6912,-2.29,93,100,0.0,US,12-18-2023
126,kubinka,55.5839,36.69,2.0,99,89,3.76,RU,12-18-2023
127,tiksi,71.6872,128.8694,-22.22,96,100,5.9,RU,12-18-2023
128,college,64.8569,-147.8028,-11.97,86,100,0.0,US,12-18-2023
129,suomussalmi,64.8869,28.9078,-2.62,94,80,4.02,FI,12-18-2023
130,gadzhiyevo,69.2551,33.3362,-4.54,85,24,9.49,RU,12-18-2023
131,ilulissat,69.2167,-51.1,-8.99,62,75,5.66,GL,12-18-2023
132,gonaives,19.45,-72.6833,30.23,55,57,2.32,HT,12-18-2023
133,masuguru,-11.3667,38.4167,33.36,35,89,1.0,TZ,12-18-2023
134,selty,57.3132,52.1345,-4.62,96,100,3.19,RU,12-18-2023
135,alofi,-19.0595,-169.9187,23.94,94,16,2.57,NU,12-18-2023
136,east london,-33.0153,27.9116,20.52,73,75,4.12,ZA,12-18-2023
137,itoman,26.1247,127.6694,21.43,81,75,4.63,JP,12-18-2023
138,port saint john's,-31.6229,29.5448,21.56,90,100,3.96,ZA,12-18-2023
139,mahavelona,-17.6848,49.5087,27.99,84,57,1.81,MG,12-18-2023
140,bol,13.4586,14.7147,25.96,48,32,2.27,TD,12-18-2023
141,pahrump,36.2083,-115.9839,15.17,20,91,2.65,US,12-18-2023
142,finspang,58.7058,15.7674,8.29,88,100,5.07,SE,12-18-2023
143,chos malal,-37.3781,-70.2709,18.57,24,1,4.73,AR,12-18-2023
144,salalah,17.0151,54.0924,26.05,53,0,1.03,OM,12-18-2023
145,hithadhoo,-0.6,73.0833,28.5,76,47,3.62,MV,12-18-2023
146,mermoz boabab,14.7065,-17.4758,28.31,54,100,5.95,SN,12-18-2023
147,meadow lakes,61.6247,-149.6011,-2.01,85,100,2.06,US,12-18-2023
148,olinda,-8.0089,-34.8553,28.85,70,75,4.12,BR,12-18-2023
149,yatou,37.15,122.3833,-7.48,78,92,1.54,CN,12-18-2023
150,rio gallegos,-51.6226,-69.2181,14.73,45,90,9.83,AR,12-18-2023
151,luderitz,-26.6481,15.1594,23.67,54,5,12.19,NA,12-18-2023
152,vilyuchinsk,52.9306,158.4028,-1.85,74,92,4.63,RU,12-18-2023
153,shumikha,55.2261,63.2961,-13.17,95,53,4.36,RU,12-18-2023
154,daru,-9.0763,143.2092,26.12,88,100,1.87,PG,12-18-2023
155,copala,16.65,-98.9833,28.64,62,0,1.52,MX,12-18-2023
156,ar ruways,24.1103,52.7306,22.51,60,0,4.66,AE,12-18-2023
157,sinop,41.7711,34.8709,4.16,68,99,1.07,TR,12-18-2023
158,rio grande,-32.035,-52.0986,31.06,83,98,6.49,BR,12-18-2023
159,sudislavl',57.8817,41.7083,-2.73,95,100,3.6,RU,12-18-2023
160,iqaluit,63.7506,-68.5145,-30.07,89,84,2.18,CA,12-18-2023
161,laminusa,5.5549,120.9136,27.51,81,100,1.2,PH,12-18-2023
162,hadibu,12.65,54.0333,24.65,80,82,9.33,YE,12-18-2023
163,aoulef,26.9667,1.0833,14.48,27,1,7.55,DZ,12-18-2023
164,ilabaya,-17.4208,-70.5133,25.06,51,87,5.37,PE,12-18-2023
165,huicheng,23.0385,116.2899,15.27,93,20,3.62,CN,12-18-2023
166,mili,6.0815,171.735,26.0,91,100,11.41,MH,12-18-2023
167,keflavik,64.0049,-22.5624,2.95,80,40,3.6,IS,12-18-2023
168,glenwood springs,39.5505,-107.3248,7.57,24,0,5.14,US,12-18-2023
169,udachny,66.4167,112.4,-31.02,100,94,1.46,RU,12-18-2023
170,tual,-5.6667,132.75,28.47,79,75,5.72,ID,12-18-2023
171,bantogon,6.5333,124.0333,26.28,82,99,2.54,PH,12-18-2023
172,pingxiang,27.6167,113.85,1.3,93,100,1.01,CN,12-18-2023
173,igrim,63.1906,64.4162,-13.25,92,100,5.03,RU,12-18-2023
174,balachor,31.0667,76.3167,13.02,39,0,3.25,IN,12-18-2023
175,wailua homesteads,22.0669,-159.378,20.44,89,40,8.23,US,12-18-2023
176,dadukou,26.5479,101.7054,11.76,68,0,0.57,CN,12-18-2023
177,sandnessjoen,66.0217,12.6316,5.23,81,75,6.17,NO,12-18-2023
178,independence,39.0911,-94.4155,1.17,55,0,7.72,US,12-18-2023
179,nowogrod bobrzanski,51.7986,15.2352,5.51,80,71,4.26,PL,12-18-2023
180,arraial do cabo,-22.9661,-42.0278,27.92,69,40,8.75,BR,12-18-2023
181,skelleftea,64.7507,20.9528,3.33,96,0,6.17,SE,12-18-2023
182,touros,-5.1989,-35.4608,28.76,68,100,4.86,BR,12-18-2023
183,kharod,21.75,82.5667,17.22,42,95,1.67,IN,12-18-2023
184,saint-pierre,-21.3393,55.4781,27.82,74,0,1.54,RE,12-18-2023
185,gebeit,21.0667,36.3167,21.67,46,3,5.69,SD,12-18-2023
186,okhotsk,59.3833,143.3,-24.18,82,98,8.58,RU,12-18-2023
187,constantia,44.1833,28.65,6.5,68,62,5.02,RO,12-18-2023
188,ambon,-3.6954,128.1814,27.27,14,40,2.57,ID,12-18-2023
189,smarhon,54.4791,26.3934,3.89,98,100,4.17,BY,12-18-2023
190,klyuchi,52.2667,79.1667,-15.51,68,93,6.03,RU,12-18-2023
191,windhoek,-22.5594,17.0832,30.39,17,97,4.94,NA,12-18-2023
192,xilin hot,43.9667,116.0333,-22.57,97,100,4.3,CN,12-18-2023
193,huarmey,-10.0681,-78.1522,23.79,77,95,4.81,PE,12-18-2023
194,san matias,-16.3667,-58.4,41.17,23,25,4.28,BO,12-18-2023
195,flin flon,54.7682,-101.865,-8.09,73,75,6.17,CA,12-18-2023
196,aden,12.7794,45.0367,25.57,44,91,6.46,YE,12-18-2023
197,bakanas,44.8081,76.2772,-7.11,86,57,2.62,KZ,12-18-2023
198,kone,-21.0595,164.8658,25.0,79,98,1.32,NC,12-18-2023
199,magadan,59.5667,150.8,-23.95,88,77,5.51,RU,12-18-2023
200,chongwe,-15.3292,28.682,30.32,65,78,1.97,ZM,12-18-2023
201,nizhneudinsk,54.9076,99.0276,-22.32,99,100,0.21,RU,12-18-2023
202,kerch,45.3583,36.4758,6.42,84,100,7.15,UA,12-18-2023
203,arar,30.9753,41.0381,12.01,71,0,1.54,SA,12-18-2023
204,ende,-8.8432,121.6623,26.57,83,100,3.32,ID,12-18-2023
205,cockburn town,21.4612,-71.1419,26.41,85,92,9.11,TC,12-18-2023
206,longyearbyen,78.2186,15.6401,-3.09,68,20,8.23,SJ,12-18-2023
207,richards bay,-28.783,32.0377,24.78,86,72,4.85,ZA,12-18-2023
208,kwakoa,-3.7667,37.7167,24.06,76,75,2.92,TZ,12-18-2023
209,kodiak,57.79,-152.4072,-0.27,80,100,6.17,US,12-18-2023
210,international falls,48.6011,-93.411,-13.9,79,49,4.12,US,12-18-2023
211,morondava,-20.2833,44.2833,28.13,77,100,7.51,MG,12-18-2023
212,bei'an,24.5399,109.533,4.11,81,100,3.94,CN,12-18-2023
213,sao paulo de olivenca,-3.3783,-68.8725,28.83,84,95,0.69,BR,12-18-2023
214,la passe,45.5549,-0.8967,3.13,69,0,1.55,FR,12-18-2023
215,isafjordur,66.0755,-23.124,-4.98,80,40,0.0,IS,12-18-2023
216,vilyuysk,63.7553,121.6247,-35.01,99,100,2.1,RU,12-18-2023
217,tyukhtet,56.5389,89.3011,-25.88,89,9,3.59,RU,12-18-2023
218,raychikhinsk,49.7838,129.4121,-36.68,100,12,1.82,RU,12-18-2023
219,sakaiminato,35.55,133.2333,4.99,75,75,2.57,JP,12-18-2023
220,awjilah,29.1081,21.2869,17.27,54,3,4.2,LY,12-18-2023
221,methil,56.1849,-3.0133,10.47,89,88,3.13,GB,12-18-2023
222,samokov,42.3333,23.55,0.93,78,5,1.84,BG,12-18-2023
223,qamdo,31.1667,97.2333,-7.14,57,14,1.19,CN,12-18-2023
224,navlya,52.8281,34.4989,1.09,100,100,3.24,RU,12-18-2023
225,roja,57.5,22.8167,5.61,97,100,4.7,LV,12-18-2023
226,cocachacra,-17.0883,-71.7575,23.16,77,95,3.58,PE,12-18-2023
227,jayapura,-2.5333,140.7,24.66,90,100,1.95,ID,12-18-2023
228,cortez,37.3489,-108.5859,6.13,74,0,2.06,US,12-18-2023
229,port alfred,-33.5906,26.891,20.66,84,0,2.24,ZA,12-18-2023
230,zheleznogorsk-ilimskiy,56.5768,104.1217,-32.02,100,89,0.45,RU,12-18-2023
231,xiaoweizhai,26.1903,107.5125,0.77,81,100,2.23,CN,12-18-2023
232,palmer,42.1584,-72.3287,16.65,83,100,7.15,US,12-18-2023
233,port lincoln,-34.7333,135.8667,15.0,71,42,9.15,AU,12-18-2023
234,ghanzi,-21.5667,21.7833,32.92,30,91,4.29,BW,12-18-2023
235,saipan,15.1355,145.701,27.39,89,40,4.63,MP,12-18-2023
236,mugia,43.1041,-9.2179,12.17,67,32,0.62,ES,12-18-2023
237,ingeniero jacobacci,-41.3427,-69.5448,14.46,22,4,2.47,AR,12-18-2023
238,rabo de peixe,37.8,-25.5833,18.73,99,20,5.14,PT,12-18-2023
239,nuuk,64.1835,-51.7216,-6.66,93,100,7.72,GL,12-18-2023
240,chonchi,-42.6128,-73.8092,14.56,41,2,2.4,CL,12-18-2023
241,georgetown,5.4112,100.3354,27.96,89,20,1.54,MY,12-18-2023
242,dawei,14.0833,98.2,23.82,76,85,1.86,MM,12-18-2023
243,grand falls-windsor,48.9332,-55.6649,6.95,81,100,4.02,CA,12-18-2023
244,hoemul-li,41.4339,129.67,-9.59,69,58,2.26,KP,12-18-2023
245,lebu,-37.6167,-73.65,13.8,59,0,9.81,CL,12-18-2023
246,kupang,-10.1667,123.5833,26.32,89,40,1.03,ID,12-18-2023
247,tura,25.5198,90.2201,15.38,83,57,1.13,IN,12-18-2023
248,kiunga,-6.1219,141.2906,23.49,99,99,0.86,PG,12-18-2023
249,coron,11.9986,120.2043,28.45,68,100,5.09,PH,12-18-2023
250,fale old settlement,-9.3852,-171.2468,28.84,75,81,3.8,TK,12-18-2023
251,taro,-8.3862,115.28,23.0,84,62,0.72,ID,12-18-2023
252,kidal,18.4411,1.4078,24.24,13,95,5.82,ML,12-18-2023
253,dzerzhinskoye,56.8344,95.2283,-30.7,100,27,1.22,RU,12-18-2023
254,kingston,17.997,-76.7936,27.36,81,60,2.68,JM,12-18-2023
255,nuku'alofa,-21.1333,-175.2,24.19,83,20,4.63,TO,12-18-2023
256,ljungby,56.8332,13.9408,7.56,98,100,4.59,SE,12-18-2023
257,tvoroyri,61.5556,-6.8111,5.83,72,77,19.99,FO,12-18-2023
258,yoro,15.1333,-87.1333,21.29,83,40,2.06,HN,12-18-2023
259,labruguiere,43.5386,2.2639,12.19,55,0,1.03,FR,12-18-2023
260,kuznetsk,53.1167,46.6004,-3.22,95,98,4.32,RU,12-18-2023
261,bahia de kino,28.8333,-111.9333,19.63,45,96,2.61,MX,12-18-2023
262,yerofey pavlovich,53.9667,121.9667,-28.48,88,99,1.26,RU,12-18-2023
263,farafangana,-22.8167,47.8333,25.71,77,9,4.64,MG,12-18-2023
264,yoloten,37.2989,62.3597,6.0,65,100,5.23,TM,12-18-2023
265,arvayheer,46.2639,102.775,-25.32,83,100,2.0,MN,12-18-2023
266,al jubayl,27.0112,49.6583,20.71,63,40,2.58,SA,12-18-2023
267,kavaratti,10.5669,72.642,28.46,75,100,5.32,IN,12-18-2023
268,gwio kura,12.6753,11.0682,31.57,14,3,4.12,NG,12-18-2023
269,rongelap,11.1635,166.8941,26.95,76,23,10.6,MH,12-18-2023
270,tucuma,-0.1833,-50.05,31.47,57,65,2.54,BR,12-18-2023
271,camabatela,-8.1881,15.375,20.42,97,100,1.4,AO,12-18-2023
272,tagiura,32.8817,13.3506,17.09,63,14,5.52,LY,12-18-2023
273,flying fish cove,-10.4217,105.6791,24.82,78,40,2.06,CX,12-18-2023
274,cabedelo,-6.9811,-34.8339,30.37,67,100,4.49,BR,12-18-2023
275,fortuna,40.5982,-124.1573,15.51,86,75,6.69,US,12-18-2023
276,kalmunai,7.4167,81.8167,25.71,88,86,3.47,LK,12-18-2023
277,koz'modem'yansk,56.3367,46.5711,-2.12,90,99,5.26,RU,12-18-2023
278,howard springs,-12.497,131.047,29.95,86,99,3.55,AU,12-18-2023
279,lerwick,60.1545,-1.1494,9.0,89,100,14.59,GB,12-18-2023
280,holualoa,19.6228,-155.9522,19.37,72,0,1.54,US,12-18-2023
281,lulea,65.5842,22.1547,2.04,80,0,4.63,SE,12-18-2023
282,cidade velha,14.9167,-23.6167,28.26,54,40,7.2,CV,12-18-2023
283,yenotayevka,47.2456,47.0281,1.92,98,100,6.28,RU,12-18-2023
284,nikolayevsk-on-amure,53.1406,140.73,-24.97,99,100,2.12,RU,12-18-2023
285,sitka,57.0531,-135.33,0.94,80,0,0.0,US,12-18-2023
286,enewetak,11.3474,162.3373,27.42,68,8,11.71,MH,12-18-2023
287,afaahiti,-17.75,-149.2833,23.93,87,100,4.76,PF,12-18-2023
288,singkil,-7.9855,111.4161,23.48,84,25,2.12,ID,12-18-2023
289,tacna,-18.0056,-70.2483,22.11,60,75,3.09,PE,12-18-2023
290,don luan,11.5333,106.9167,22.78,83,92,2.3,VN,12-18-2023
291,boquete,8.7833,-82.4333,22.78,73,99,2.24,PA,12-18-2023
292,sambava,-14.2667,50.1667,26.86,74,99,2.38,MG,12-18-2023
293,colonia,50.9333,6.95,6.03,82,0,0.51,DE,12-18-2023
294,buka,40.8108,69.1986,7.25,50,100,1.54,UZ,12-18-2023
295,basco,20.4487,121.9702,25.77,77,100,10.81,PH,12-18-2023
296,talanga,14.4,-87.0833,21.3,58,59,3.74,HN,12-18-2023
297,gorom-gorom,14.4439,-0.2361,29.15,8,64,5.06,BF,12-18-2023
298,poltavka,54.3663,71.7632,-8.79,94,100,6.81,RU,12-18-2023
299,safaga,26.7292,33.9365,22.79,50,5,7.78,EG,12-18-2023
300,weligama,5.9667,80.4167,24.52,93,97,4.4,LK,12-18-2023
301,almeirim,-1.5233,-52.5817,35.67,40,26,2.18,BR,12-18-2023
302,sisimiut,66.9395,-53.6735,-9.96,78,100,17.08,GL,12-18-2023
303,strezhevoy,60.7333,77.5889,-13.35,85,100,7.6,RU,12-18-2023
304,buckhannon,38.994,-80.232,3.36,92,75,7.2,US,12-18-2023
305,smithers,54.7804,-127.1743,-5.82,100,100,0.0,CA,12-18-2023
306,tazovsky,67.4667,78.7,-12.95,91,100,10.59,RU,12-18-2023
307,nar'yan-mar,67.6713,53.087,-13.27,91,100,8.49,RU,12-18-2023
308,carnarvon,-24.8667,113.6333,22.7,79,5,6.63,AU,12-18-2023
309,sinazongwe,-17.2614,27.4618,32.38,49,52,3.84,ZM,12-18-2023
310,kudahuvadhoo,2.6708,72.8944,28.61,72,86,1.88,MV,12-18-2023
311,san antonio de pale,-1.4014,5.6325,27.02,81,75,3.45,GQ,12-18-2023
312,tobol'sk,58.2,68.2667,-9.12,94,100,4.8,RU,12-18-2023
313,lagoa,39.05,-27.9833,14.12,89,100,9.81,PT,12-18-2023
314,rawatsar,29.2833,74.3833,16.47,27,0,3.72,IN,12-18-2023
315,eldorado,-23.7869,-54.2836,35.87,35,37,2.0,BR,12-18-2023
316,tolanaro,-25.0319,46.9987,23.7,88,11,2.84,MG,12-18-2023
317,shanhaiguan,39.9988,119.7564,-11.66,93,81,2.57,CN,12-18-2023
318,ad dawadimi,24.5077,44.3924,14.64,22,52,1.15,SA,12-18-2023
319,senillosa,-39.0,-68.4167,16.88,27,6,5.92,AR,12-18-2023
320,nova vicosa,-17.8919,-39.3719,30.18,57,23,6.23,BR,12-18-2023
321,mahina,-17.5065,-149.489,24.87,83,100,1.03,PF,12-18-2023
322,uturoa,-16.7333,-151.4333,25.88,81,100,5.27,PF,12-18-2023
323,al lagowa,11.4,29.1333,30.23,18,69,4.03,SD,12-18-2023
324,ewo,-0.8725,14.8206,31.3,51,100,1.21,CG,12-18-2023
325,rabaul,-4.1967,152.1721,26.52,82,85,1.66,PG,12-18-2023
326,zyryanovsk,49.7386,84.2719,-29.84,92,5,1.02,KZ,12-18-2023
327,puerto santa,-8.9906,-78.6456,21.8,82,99,4.42,PE,12-18-2023
328,ciudad sabinas hidalgo,26.5,-100.1667,18.75,45,16,1.43,MX,12-18-2023
329,zorritos,-3.6805,-80.6782,28.16,69,93,2.37,PE,12-18-2023
330,mumbwa,-14.9783,27.0619,27.63,55,89,1.31,ZM,12-18-2023
331,andergrove,-21.0833,149.1833,23.14,80,19,1.62,AU,12-18-2023
332,laojunmiao,39.8333,97.7333,-13.73,80,28,0.84,CN,12-18-2023
333,cozumel,20.5083,-86.9458,24.41,72,0,8.75,MX,12-18-2023
334,lompoc,34.6391,-120.4579,17.19,76,100,5.14,US,12-18-2023
335,remire-montjoly,4.9167,-52.2667,32.02,66,20,4.12,GF,12-18-2023
336,berdigestyakh,62.0989,126.6992,-35.2,98,99,2.3,RU,12-18-2023
337,gagliano del capo,39.8442,18.3695,11.68,82,20,3.6,IT,12-18-2023
338,san ignacio rio muerto,27.4167,-110.2333,16.29,25,97,2.14,MX,12-18-2023
339,lycksele,64.5954,18.6735,1.93,87,0,2.57,SE,12-18-2023
340,kangding,30.0513,101.9603,0.01,67,23,0.32,CN,12-18-2023
341,as sulayyil,20.4607,45.5779,18.14,23,0,3.57,SA,12-18-2023
342,frankfort,-27.2667,28.4833,29.01,30,92,4.96,ZA,12-18-2023
343,eraan,9.0629,117.7016,26.02,87,100,2.17,PH,12-18-2023
344,kondopoga,62.2057,34.2614,-2.18,93,38,2.54,RU,12-18-2023
345,summerland,49.5998,-119.6691,1.42,86,100,1.03,CA,12-18-2023
346,gisborne,-38.6533,178.0042,16.73,92,100,0.19,NZ,12-18-2023
347,xai-xai,-25.0519,33.6442,26.23,84,80,5.74,MZ,12-18-2023
348,severo-yeniseyskiy,60.3725,93.0408,-32.46,100,18,1.34,RU,12-18-2023
349,lourical,40.0039,-8.7374,15.9,59,0,1.74,PT,12-18-2023
350,torbat-e jam,35.244,60.6225,6.45,61,100,1.33,IR,12-18-2023
351,santana,-0.0583,-51.1817,33.1,58,40,6.17,BR,12-18-2023
352,puerto armuelles,8.2833,-82.8667,29.99,78,41,0.45,PA,12-18-2023
353,baki,-7.6128,110.7839,23.44,81,73,3.99,ID,12-18-2023
354,minas de marcona,-15.2119,-75.1103,21.58,61,94,5.33,PE,12-18-2023
355,hluti,-27.2167,31.6167,29.0,58,14,5.76,SZ,12-18-2023
356,zhanibek,49.4167,46.85,0.27,92,100,5.22,KZ,12-18-2023
357,bermeo,43.4209,-2.7215,13.11,68,0,1.64,ES,12-18-2023
358,ancud,-41.8697,-73.8203,14.18,47,0,1.96,CL,12-18-2023
359,ta'izz,13.5,44.0,19.07,40,27,2.11,YE,12-18-2023
360,kirakira,-10.4544,161.9205,25.13,85,94,1.64,SB,12-18-2023
361,valle hermoso,25.6667,-97.8333,18.92,44,2,0.38,MX,12-18-2023
362,lata,40.1629,-8.3327,10.51,57,0,0.94,PT,12-18-2023
363,bubaque,11.2833,-15.8333,28.91,51,86,2.03,GW,12-18-2023
364,kalemie,-5.9475,29.1947,24.61,79,100,1.84,CD,12-18-2023
365,petropavlovsk-kamchatsky,53.0452,158.6483,-2.67,83,75,10.0,RU,12-18-2023
366,bang saphan,11.2126,99.5117,24.42,85,14,1.33,TH,12-18-2023
367,weno,7.4515,151.8468,28.2,79,34,7.99,FM,12-18-2023
368,tainan,22.9908,120.2133,21.04,88,20,1.03,TW,12-18-2023
369,bardsir,29.9227,56.5743,10.69,20,35,2.83,IR,12-18-2023
370,antofagasta,-23.65,-70.4,20.6,66,30,4.2,CL,12-18-2023
371,margate,51.3813,1.3862,11.17,81,71,3.58,GB,12-18-2023
372,oranjemund,-28.55,16.4333,19.16,73,6,10.09,NA,12-18-2023
373,cooper's town,26.8667,-77.5167,20.53,66,22,9.24,BS,12-18-2023
374,mount pearl,47.5166,-52.7813,6.19,73,75,8.75,CA,12-18-2023
375,mumbai,19.0144,72.8479,27.99,44,100,3.6,IN,12-18-2023
376,manchester,53.4809,-2.2374,14.02,88,75,4.63,GB,12-18-2023
377,baker city,44.7749,-117.8344,0.33,80,20,2.06,US,12-18-2023
378,freetown,8.484,-13.2299,31.49,35,12,2.13,SL,12-18-2023
379,urangan,-25.3,152.9,24.06,85,8,3.8,AU,12-18-2023
380,launceston,-41.45,147.1667,15.8,100,100,4.63,AU,12-18-2023
381,porto-vecchio,41.591,9.2795,10.74,76,0,1.03,FR,12-18-2023
382,labrador city,52.9463,-66.9114,2.0,98,100,5.48,CA,12-18-2023
383,mandan,46.8267,-100.8896,-6.69,91,0,3.09,US,12-18-2023
384,esmeralda,21.8525,-78.1169,25.82,62,3,4.58,CU,12-18-2023
385,wajir,1.7471,40.0573,31.4,40,89,2.47,KE,12-18-2023
386,aasiaat,68.7098,-52.8699,-9.72,76,100,14.35,GL,12-18-2023
387,xinzhi,36.4989,111.7047,-8.61,87,54,1.88,CN,12-18-2023
388,ponta delgada,37.7333,-25.6667,19.4,88,20,5.66,PT,12-18-2023
389,yanbu,24.0891,38.0637,26.02,61,0,3.09,SA,12-18-2023
390,murzuq,25.9155,13.9184,17.34,32,8,3.58,LY,12-18-2023
391,mhamid,29.82,-5.72,15.38,27,3,6.72,MA,12-18-2023
392,nogliki,51.8333,143.1667,-15.37,84,100,8.05,RU,12-18-2023
393,kavieng,-2.5744,150.7967,27.68,79,45,2.48,PG,12-18-2023
394,kayangel,8.0823,134.7173,28.48,76,25,7.48,PW,12-18-2023
395,la'ie,21.6477,-157.9253,20.66,75,100,7.93,US,12-18-2023
396,tofol,5.3248,163.0078,27.99,78,100,8.84,FM,12-18-2023
397,sao vicente,-23.9631,-46.3919,36.1,50,40,3.6,BR,12-18-2023
398,aswan,24.0934,32.907,23.87,24,92,4.98,EG,12-18-2023
399,arraias,-12.9288,-46.9437,36.09,20,33,2.33,BR,12-18-2023
400,wanxian,30.8039,108.3897,6.48,80,99,0.41,CN,12-18-2023
401,el nido,11.1858,119.3956,28.14,74,100,8.76,PH,12-18-2023
402,burang,30.25,81.1667,-13.27,43,0,1.57,CN,12-18-2023
403,mount gambier,-37.8333,140.7667,12.51,91,59,4.77,AU,12-18-2023
404,san pedro,14.35,121.0167,26.57,86,75,2.24,PH,12-18-2023
405,cill airne,52.05,-9.5167,12.03,94,100,2.57,IE,12-18-2023
406,mawlamyinegyunn,16.3833,95.2667,24.52,70,83,2.66,MM,12-18-2023
407,saldanha,-33.0117,17.9442,18.09,70,14,13.13,ZA,12-18-2023
408,carutapera,-1.195,-46.02,31.3,59,83,3.63,BR,12-18-2023
409,leitchfield,37.48,-86.2939,2.88,75,14,1.34,US,12-18-2023
410,erbiceni,47.2667,27.2333,9.67,60,44,1.24,RO,12-18-2023
411,atherton,53.5237,-2.4935,13.72,96,100,3.82,GB,12-18-2023
412,najran,17.4924,44.1277,16.36,17,6,2.46,SA,12-18-2023
413,gambela,8.25,34.5833,30.84,40,95,1.05,ET,12-18-2023
414,kagal'nitskaya,46.8806,40.1466,2.12,95,100,5.63,RU,12-18-2023
415,tutoia,-2.7619,-42.2744,29.3,71,84,4.42,BR,12-18-2023
416,hovd,48.0056,91.6419,-22.22,82,5,1.36,MN,12-18-2023
417,bikenibeu village,1.3673,173.1241,26.98,94,75,5.14,KI,12-18-2023
418,mingora,34.7758,72.3625,9.63,27,0,3.35,PK,12-18-2023
419,kirensk,57.7853,108.1119,-38.37,100,93,0.42,RU,12-18-2023
420,tongouson,5.0214,120.1328,26.84,86,100,3.64,PH,12-18-2023
421,paphos,34.7667,32.4167,16.88,63,20,1.54,CY,12-18-2023
422,broken hill,-31.95,141.4333,27.22,20,98,6.33,AU,12-18-2023
423,hilo,19.7297,-155.09,19.85,97,100,1.34,US,12-18-2023
424,nadi,-17.8,177.4167,25.0,88,40,1.03,FJ,12-18-2023
425,mammoth lakes,37.6485,-118.9721,4.08,75,100,2.24,US,12-18-2023
426,san patricio,28.017,-97.5169,16.62,46,1,2.76,US,12-18-2023
427,anori,-3.7728,-61.6442,35.39,46,77,0.71,BR,12-18-2023
428,necochea,-38.5473,-58.7368,15.43,58,100,7.87,AR,12-18-2023
429,portland,45.5234,-122.6762,7.16,75,75,6.26,US,12-18-2023
430,smara,26.7384,-11.6719,20.97,17,0,6.89,EH,12-18-2023
431,sao joao da barra,-21.6403,-41.0511,32.05,74,16,5.17,BR,12-18-2023
432,al bayda,32.7627,21.7551,11.0,78,82,1.47,LY,12-18-2023
433,harrisburg,40.2737,-76.8844,9.71,70,75,12.52,US,12-18-2023
434,pisco,-13.7,-76.2167,21.12,88,100,3.6,PE,12-18-2023
435,altai,46.3722,96.2583,-29.56,90,17,1.32,MN,12-18-2023
436,eyl,7.9803,49.8164,25.84,71,17,10.69,SO,12-18-2023
437,westport,41.1415,-73.3579,16.75,91,100,4.63,US,12-18-2023
438,bereeda,11.8704,51.0579,24.41,78,100,8.73,SO,12-18-2023
439,saint-joseph,-21.3667,55.6167,27.21,83,100,2.07,RE,12-18-2023
440,karukh,34.4811,62.5863,7.13,47,100,3.96,AF,12-18-2023
441,new norfolk,-42.7826,147.0587,14.84,96,100,1.05,AU,12-18-2023
442,hobyo,5.3505,48.5268,26.42,77,47,10.01,SO,12-18-2023
443,malvan,16.0667,73.4667,27.88,68,100,2.21,IN,12-18-2023
444,ovalle,-30.5983,-71.2003,28.34,27,0,3.05,CL,12-18-2023
445,paita,-5.0892,-81.1144,24.66,73,55,5.16,PE,12-18-2023
446,alo,7.4178,6.7371,37.68,13,8,1.02,NG,12-18-2023
447,dzhambeyty,50.2536,52.595,-3.61,98,100,2.9,KZ,12-18-2023
448,masterton,-40.9597,175.6575,14.38,97,15,0.84,NZ,12-18-2023
449,christchurch,-43.5333,172.6333,15.11,81,100,5.14,NZ,12-18-2023
450,birjand,32.8663,59.2211,9.26,34,0,5.14,IR,12-18-2023
451,coromandel,-18.4733,-47.2003,33.55,22,60,2.1,BR,12-18-2023
452,hirado,33.3597,129.5531,3.55,77,100,4.15,JP,12-18-2023
453,ust-tsilma,65.441,52.1498,-12.44,94,100,4.47,RU,12-18-2023
454,boyolangu,-8.1181,111.8935,23.83,80,67,1.65,ID,12-18-2023
455,antsiranana,-12.2787,49.2917,27.7,76,55,4.81,MG,12-18-2023
456,batibo,5.8358,9.8553,28.53,31,65,1.61,CM,12-18-2023
457,goz beida,13.95,20.55,29.27,15,15,3.77,TD,12-18-2023
458,anar darah,32.7587,61.654,11.32,38,73,1.89,AF,12-18-2023
459,auki,-8.7676,160.7034,23.89,83,99,0.67,SB,12-18-2023
460,juan griego,11.0817,-63.9655,29.21,67,61,4.38,VE,12-18-2023
461,saint marys,30.7305,-81.5465,15.05,68,0,5.66,US,12-18-2023
462,okahao,-17.885,15.0667,31.4,31,100,3.69,NA,12-18-2023
463,kapuskasing,49.4169,-82.4331,-6.0,86,100,9.77,CA,12-18-2023
464,muncar,-8.4333,114.3333,24.33,79,31,1.8,ID,12-18-2023
465,guerrero negro,27.9769,-114.0611,19.93,59,100,3.57,MX,12-18-2023
466,homer,59.6425,-151.5483,-1.06,93,100,0.0,US,12-18-2023
467,acarau,-2.8856,-40.12,30.61,62,100,5.36,BR,12-18-2023
468,ghadamis,30.1337,9.5007,11.42,65,98,4.52,LY,12-18-2023
469,mathis,28.0945,-97.828,16.2,42,2,2.94,US,12-18-2023
470,trstenik,43.6169,21.0025,4.23,73,4,1.12,RS,12-18-2023
471,jertih,5.7336,102.4897,24.37,89,46,1.06,MY,12-18-2023
472,moussoro,13.6408,16.4901,30.9,15,15,4.63,TD,12-18-2023
473,berezovyy,51.6667,135.7,-19.36,98,100,1.06,RU,12-18-2023
474,harwich,51.9419,1.2844,12.22,83,68,5.36,GB,12-18-2023
475,trondheim,63.4305,10.3951,7.05,84,100,0.89,NO,12-18-2023
476,bangassou,4.7413,22.8184,29.51,38,87,1.55,CF,12-18-2023
477,lashio,22.9333,97.75,12.79,89,0,0.79,MM,12-18-2023
478,magdalena contreras,19.2833,-99.2333,14.59,28,68,1.42,MX,12-18-2023
479,soio,-6.1349,12.3689,27.51,82,92,5.46,AO,12-18-2023
480,tchintabaraden,15.8969,5.7985,27.37,11,97,3.69,NE,12-18-2023
481,nadym,65.5333,72.5167,-13.28,90,100,10.24,RU,12-18-2023
482,sikasso,10.9167,-7.0,33.84,9,66,3.52,ML,12-18-2023
483,villa gesell,-37.2639,-56.973,16.27,65,100,10.95,AR,12-18-2023
484,nizhnyaya tavda,57.6731,66.1725,-8.92,95,98,3.54,RU,12-18-2023
485,borgarnes,64.5383,-21.9206,3.03,96,77,1.4,IS,12-18-2023
486,queenstown,-31.8976,26.8753,19.81,67,75,6.71,ZA,12-18-2023
487,chapaev,50.2,51.1667,-2.4,98,100,3.27,KZ,12-18-2023
488,taiynsha,53.8478,69.7639,-4.68,95,100,6.0,KZ,12-18-2023
489,pitimbu,-7.4706,-34.8086,30.33,67,97,4.5,BR,12-18-2023
490,kas,36.2018,29.6377,15.57,79,26,1.27,TR,12-18-2023
491,egilsstadir,65.2653,-14.3948,-4.05,86,40,4.12,IS,12-18-2023
492,rikaze,29.25,88.8833,-0.21,25,11,1.87,CN,12-18-2023
493,lusambo,-4.9667,23.45,24.54,90,100,0.4,CD,12-18-2023
494,gizo,-8.103,156.8419,26.51,76,97,2.39,SB,12-18-2023
495,nurota,40.5614,65.6886,5.33,70,100,6.08,UZ,12-18-2023
496,meulaboh,4.1363,96.1285,23.87,92,100,3.34,ID,12-18-2023
497,anka,12.1138,5.9243,33.5,11,0,3.41,NG,12-18-2023
498,kurmuk,10.55,34.2833,31.03,24,96,2.14,SD,12-18-2023
499,usogorsk,63.4106,48.6872,-6.18,96,99,2.52,RU,12-18-2023
500,kenai,60.5544,-151.2583,-4.95,100,100,1.54,US,12-18-2023
501,vilhena,-12.7406,-60.1458,34.98,35,60,2.28,BR,12-18-2023
502,mawlaik,23.6333,94.4167,17.46,89,83,0.56,MM,12-18-2023
503,isangel,-19.55,169.2667,25.51,86,98,4.89,VU,12-18-2023
504,igarka,67.4667,86.5833,-17.49,89,100,11.54,RU,12-18-2023
505,north bend,43.4065,-124.2243,11.15,93,100,2.57,US,12-18-2023
506,birobidzhan,48.8,132.95,-29.54,94,6,1.45,RU,12-18-2023
507,heroica caborca,30.7167,-112.15,19.25,20,100,0.18,MX,12-18-2023
508,svetlyy,54.675,20.1347,7.03,96,100,6.92,RU,12-18-2023
509,labuan,5.2767,115.2417,29.2,74,20,3.09,MY,12-18-2023
510,vegreville,53.5001,-112.0518,-3.31,85,56,3.46,CA,12-18-2023
511,narimanov,46.6927,47.8498,1.95,98,100,6.35,RU,12-18-2023
512,laguna,38.421,-121.4238,10.16,94,100,3.09,US,12-18-2023
513,mount isa,-20.7333,139.5,30.87,51,65,6.17,AU,12-18-2023
514,prince albert,53.2001,-105.7677,-9.03,79,40,6.69,CA,12-18-2023
515,gorgoram,12.6398,10.7039,31.79,14,5,3.93,NG,12-18-2023
516,muntok,-2.0667,105.1833,26.82,81,53,1.51,ID,12-18-2023
517,leua,48.2156,18.6071,4.16,80,0,0.83,SK,12-18-2023
518,alice springs,-23.7,133.8833,31.01,28,75,6.3,AU,12-18-2023
519,backi petrovac,45.3606,19.5917,5.52,58,0,1.39,RS,12-18-2023
520,turpan,42.9333,89.1667,-9.08,49,1,1.05,CN,12-18-2023
521,hull,53.7446,-0.3353,13.3,51,100,7.2,GB,12-18-2023
522,barcelos,41.5388,-8.6151,12.08,62,0,1.15,PT,12-18-2023
523,cruzeiro do sul,-29.5128,-51.9853,36.38,59,78,1.74,BR,12-18-2023
524,kenora,49.8167,-94.4337,-16.46,85,20,3.09,CA,12-18-2023
525,dame-marie,18.5667,-74.4167,27.53,72,99,1.74,HT,12-18-2023
526,nkhata bay,-11.6066,34.2907,28.36,65,84,2.89,MW,12-18-2023
527,pyhajarvi,67.0701,27.2176,-10.79,98,73,2.15,FI,12-18-2023
528,brookings,44.3114,-96.7984,-6.57,76,0,3.6,US,12-18-2023
529,suluktu,39.9337,69.57,0.71,44,100,2.36,KG,12-18-2023
530,bagli,22.65,76.35,15.19,41,44,2.45,IN,12-18-2023
531,chegdomyn,51.1167,133.0167,-27.57,93,99,0.25,RU,12-18-2023
532,tukrah,32.5341,20.5791,16.32,64,23,6.58,LY,12-18-2023
533,katsuren-haebaru,26.3369,127.8719,21.43,73,100,4.63,JP,12-18-2023
534,trang,7.5,99.5,24.32,90,100,1.43,TH,12-18-2023
535,otacilio costa,-27.4831,-50.1219,31.47,41,7,1.42,BR,12-18-2023
536,sirte,31.2089,16.5887,18.6,65,7,7.77,LY,12-18-2023
537,severo-vostotchnyi bank,39.4112,49.2479,8.37,65,8,3.08,AZ,12-18-2023
538,puerto deseado,-47.7503,-65.8938,15.09,54,8,7.29,AR,12-18-2023
539,tomatlan,19.9333,-105.25,27.34,48,61,0.86,MX,12-18-2023
540,paramonga,-10.6667,-77.8333,22.15,84,97,4.29,PE,12-18-2023
541,seosan,36.7817,126.4522,-4.0,75,100,0.68,KR,12-18-2023
542,lyantor,61.6195,72.1555,-12.58,92,100,8.07,RU,12-18-2023
543,papao,-17.75,-149.55,24.82,82,100,4.54,PF,12-18-2023
544,kirkwall,58.9848,-2.9587,9.03,81,75,10.29,GB,12-18-2023
545,gazojak,41.1875,61.4036,-0.83,79,100,6.64,TM,12-18-2023
546,wuhai,39.6647,106.8122,-13.67,68,0,4.53,CN,12-18-2023
547,longonjo,-12.9067,15.2533,18.85,93,100,0.6,AO,12-18-2023
548,sorong,-0.8833,131.25,27.77,81,82,4.42,ID,12-18-2023
549,volnovakha,47.601,37.4967,1.45,99,100,3.68,UA,12-18-2023
550,skovorodino,53.9833,123.9167,-26.19,92,100,1.62,RU,12-18-2023
551,shahrak,34.1074,64.3052,3.15,38,100,1.96,AF,12-18-2023
552,wickenburg,33.9686,-112.7296,15.3,17,100,1.66,US,12-18-2023
553,gorgan,36.8387,54.4348,4.98,87,75,2.06,IR,12-18-2023
554,sangueya,10.7,-14.3667,34.63,24,26,3.12,GN,12-18-2023
555,jiagedaqi,50.4167,124.1167,-29.91,96,39,1.18,CN,12-18-2023
556,palikir - national government center,6.9248,158.1611,27.41,83,75,4.63,FM,12-18-2023
557,sudzha,51.1976,35.2726,1.26,100,100,3.42,RU,12-18-2023
558,zaozersk,69.4005,32.4476,-4.73,85,22,8.5,RU,12-18-2023
559,trujillo,-8.116,-79.03,21.98,78,40,5.14,PE,12-18-2023
560,ponneri,13.3167,80.2,26.99,70,100,4.61,IN,12-18-2023
561,alice,27.7523,-98.0697,16.85,61,0,3.09,US,12-18-2023
562,lima,-12.0432,-77.0282,24.94,73,75,4.63,PE,12-18-2023
563,xining,36.6167,101.7667,-10.81,79,4,0.79,CN,12-18-2023
564,conceicao do araguaia,-8.2578,-49.2647,36.21,38,9,2.14,BR,12-18-2023
565,chernyshevskiy,63.0128,112.4714,-37.36,100,93,1.15,RU,12-18-2023
566,cartagena,10.3997,-75.5144,30.79,70,20,3.09,CO,12-18-2023
567,novodvinsk,64.4165,40.8122,-2.14,94,99,3.26,RU,12-18-2023
568,tocopilla,-22.092,-70.1979,21.77,74,36,2.93,CL,12-18-2023
569,katsuura,35.1333,140.3,9.52,54,100,3.04,JP,12-18-2023
570,muynoq,43.7683,59.0214,-2.07,80,10,7.54,UZ,12-18-2023
571,dunedin,-45.8742,170.5036,12.67,86,61,1.79,NZ,12-18-2023
572,pont rouge,48.8833,-72.0825,3.16,98,100,4.6,CA,12-18-2023
573,kununurra,-15.7667,128.7333,28.99,84,38,0.0,AU,12-18-2023
574,sabang,5.8933,95.3214,28.19,77,100,5.09,ID,12-18-2023
575,pandan,14.0453,124.1694,26.24,87,100,6.49,PH,12-18-2023
576,lospalos,-8.5186,127.0025,23.43,83,70,0.84,TL,12-18-2023
577,stenungsund,58.0705,11.8181,7.5,98,98,5.76,SE,12-18-2023
578,lihue,21.9789,-159.3672,20.77,86,40,8.23,US,12-18-2023
579,mil'kovo,55.6078,37.7956,2.27,95,80,3.47,RU,12-18-2023
580,xam nua,20.4197,104.0439,14.04,99,45,1.26,LA,12-18-2023
581,borgo val di taro,44.487,9.7658,11.24,55,9,0.45,IT,12-18-2023
582,iwon-up,40.3231,128.6553,-9.36,66,20,2.42,KP,12-18-2023
583,ceeldheer,3.8488,47.1806,26.58,75,74,10.3,SO,12-18-2023
584,turbat,26.0023,63.044,20.14,46,0,2.27,PK,12-18-2023
585,s'arenal,39.5,2.75,15.74,56,20,4.12,ES,12-18-2023
586,ouezzane,34.7971,-5.5822,16.37,41,0,1.15,MA,12-18-2023
587,murud,18.3258,72.965,26.46,57,94,2.49,IN,12-18-2023
588,humberto de campos,-2.5983,-43.4611,29.97,70,79,2.38,BR,12-18-2023
589,nha trang,12.25,109.1833,27.0,92,96,3.0,VN,12-18-2023
590,yanam,16.7333,82.2167,21.68,74,43,1.96,IN,12-18-2023
591,kismayo,-0.3582,42.5454,27.56,79,84,6.95,SO,12-18-2023
592,nizhnesortymskiy,62.4397,71.7603,-13.99,93,100,8.02,RU,12-18-2023
593,niort,46.3333,-0.3333,3.98,97,3,0.45,FR,12-18-2023
594,fiambala,-27.6871,-67.6149,25.81,49,10,5.71,AR,12-18-2023
