City_ID,City,Lat,Lng,Max Temp,Humidity,Cloudiness,Wind Speed,Country,Date
0,waitangi,-43.9535,-176.5597,16.01,93,100,2.68,NZ,1702839470
1,north bend,43.4065,-124.2243,12.26,71,0,2.06,US,1702839470
2,port-aux-francais,-49.35,70.2167,4.91,66,100,10.42,TF,1702839471
3,"laikit, laikit ii (dimembe)",1.4792,124.9735,22.47,100,20,0.51,ID,1702839471
4,blackmans bay,-43.0167,147.3167,13.07,80,100,1.2,AU,1702839471
5,anadyr,64.75,177.4833,-20.72,77,75,3.0,RU,1702839883
6,nikko,36.75,139.6167,-1.59,68,12,3.97,JP,1702839883
7,ushuaia,-54.8,-68.3,10.79,57,0,3.09,AR,1702839725
8,bonthe,7.5264,-12.505,27.0,69,68,3.5,SL,1702839795
9,st. john's,47.5649,-52.7093,0.64,63,40,8.23,CA,1702839604
10,adamstown,-25.066,-130.1015,22.83,83,100,7.14,PN,1702839883
11,iqaluit,63.7506,-68.5145,-18.15,78,75,10.29,CA,1702839722
12,ta`u,-14.2336,-169.5144,26.95,84,100,4.88,AS,1702839883
13,margaret river,-33.95,115.0667,14.7,65,0,5.32,AU,1702839472
14,lebu,-37.6167,-73.65,13.97,60,3,7.02,CL,1702839472
15,edinburgh of the seven seas,-37.0676,-12.3116,13.1,67,9,4.29,SH,1702839472
16,isangel,-19.55,169.2667,25.06,94,100,0.0,VU,1702839472
17,bilibino,68.0546,166.4372,-33.24,99,97,0.61,RU,1702839472
18,hermanus,-34.4187,19.2345,18.17,80,0,1.66,ZA,1702839472
19,nova sintra,14.8667,-24.7167,22.06,69,0,4.02,CV,1702839472
20,kodiak,57.79,-152.4072,0.73,64,0,4.63,US,1702839396
21,west island,-12.1568,96.8225,26.99,74,26,3.6,CC,1702839473
22,dunedin,-45.8742,170.5036,12.11,80,100,0.49,NZ,1702839438
23,aasiaat,68.7098,-52.8699,-19.16,82,100,4.16,GL,1702839473
24,thompson,55.7435,-97.8558,-14.91,72,40,4.12,CA,1702839389
25,iskateley,67.6803,53.1512,-14.43,89,95,8.94,RU,1702839473
26,grytviken,-54.2811,-36.5092,5.2,57,100,5.88,GS,1702839473
27,fale old settlement,-9.3852,-171.2468,28.65,73,85,0.89,TK,1702839473
28,dongfeng,42.6403,125.5118,-20.7,84,0,2.59,CN,1702839473
29,ancud,-41.8697,-73.8203,12.2,59,24,4.97,CL,1702839473
30,punta arenas,-53.15,-70.9167,14.06,35,0,7.72,CL,1702839473
31,albany,42.6001,-73.9662,7.87,82,100,0.89,US,1702839473
32,tiksi,71.6872,128.8694,-28.65,97,88,4.54,RU,1702839474
33,jauja,-11.7758,-75.4966,17.38,57,97,3.3,PE,1702839884
34,tuy hoa,13.0833,109.3,23.55,92,55,3.69,VN,1702839884
35,holualoa,19.6228,-155.9522,22.91,60,0,4.12,US,1702839885
36,hawaiian paradise park,19.5933,-154.9731,22.73,82,100,2.57,US,1702839885
37,turiacu,-1.6633,-45.3717,28.77,73,100,2.83,BR,1702839885
38,peace river,56.2501,-117.286,-7.83,79,75,1.54,CA,1702839673
39,isafjordur,66.0755,-23.124,2.02,64,75,3.6,IS,1702839885
40,serhiyivka,46.0272,30.3768,5.72,69,100,5.58,UA,1702839885
41,ola,59.5833,151.2833,-21.96,86,97,6.69,RU,1702839885
42,tadine,-21.55,167.8833,24.09,74,100,7.02,NC,1702839885
43,mata-utu,-13.2816,-176.1745,27.91,80,100,3.09,WF,1702839885
44,enewetak,11.3474,162.3373,27.26,80,100,10.41,MH,1702839885
45,aykhal,66.0,111.5,-31.2,100,90,2.5,RU,1702839885
46,zheleznogorsk-ilimskiy,56.5768,104.1217,-27.02,99,100,0.45,RU,1702839885
47,fonte boa,-2.4959,-66.2662,28.53,87,99,0.27,BR,1702839886
48,pangody,65.85,74.4859,-14.9,76,98,10.57,RU,1702839886
49,port elizabeth,-33.918,25.5701,20.16,84,40,9.26,ZA,1702839886
50,ugoofaaru,5.6667,73.0,28.18,69,47,0.91,MV,1702839886
51,arkhangel'sk,64.5401,40.5433,-5.94,100,75,1.0,RU,1702839886
52,dawei,14.0833,98.2,24.22,77,15,2.5,MM,1702839886
53,amahai,-3.3333,128.9167,26.06,84,87,1.46,ID,1702839886
54,udachny,66.4167,112.4,-36.29,100,91,1.61,RU,1702839886
55,pont rouge,48.8833,-72.0825,4.16,79,100,4.9,CA,1702839886
56,praia da vitoria,38.7333,-27.0667,19.31,94,75,7.71,PT,1702839886
57,papatowai,-46.5619,169.4708,10.96,74,0,1.92,NZ,1702839887
58,tolanaro,-25.0319,46.9987,26.04,89,40,4.12,MG,1702839887
59,wailua homesteads,22.0669,-159.378,22.44,80,100,8.75,US,1702839887
60,susuman,62.7833,148.1667,-29.45,100,96,1.34,RU,1702839887
61,thinadhoo,0.5333,72.9333,28.18,78,19,5.77,MV,1702839887
62,stanley,54.868,-1.6985,10.71,87,75,7.72,GB,1702839828
63,asubulaq,49.5583,83.0558,-22.48,82,6,2.37,KZ,1702839887
64,ghat,24.9647,10.1728,13.9,39,0,3.46,LY,1702839887
65,paulsstadt,53.6328,11.4037,9.21,93,20,6.71,DE,1702839888
66,vila franca do campo,37.7167,-25.4333,19.23,99,100,3.37,PT,1702839888
67,moreira sales,-24.0622,-53.0069,34.29,42,8,1.52,BR,1702839888
68,el granada,37.5027,-122.4694,16.05,72,40,3.09,US,1702839888
69,longyearbyen,78.2186,15.6401,-0.09,74,40,5.66,SJ,1702839888
70,mandalgovi,45.7625,106.2708,-21.98,98,100,3.44,MN,1702839888
71,kavieng,-2.5744,150.7967,27.47,79,19,1.27,PG,1702839888
72,rikaze,29.25,88.8833,-1.29,36,3,1.62,CN,1702839888
73,vilyuchinsk,52.9306,158.4028,0.15,92,100,18.93,RU,1702839888
74,utrik,11.2278,169.8474,26.66,83,100,11.82,MH,1702839889
75,fisterra,42.9049,-9.2629,7.64,72,0,2.45,ES,1702839889
76,lihue,21.9789,-159.3672,22.77,73,100,8.75,US,1702839889
77,hasaki,35.7333,140.8333,5.16,41,37,7.91,JP,1702839889
78,puerto natales,-51.7236,-72.4875,14.25,38,75,7.2,CL,1702839889
79,ribeira grande,38.5167,-28.7,19.32,94,75,6.26,PT,1702839889
80,bethel,41.3712,-73.414,10.2,85,100,3.6,US,1702839889
81,puerto deseado,-47.7503,-65.8938,11.47,50,100,5.12,AR,1702839889
82,skara,58.3866,13.4384,7.08,94,100,6.71,SE,1702839889
83,emporia,38.4039,-96.1817,11.95,49,50,4.82,US,1702839739
84,vilyuysk,63.7553,121.6247,-43.33,100,63,0.89,RU,1702839889
85,taulaga,-11.0553,-171.0883,28.14,79,93,3.12,AS,1702839890
86,whitehorse,60.7161,-135.0538,-0.57,74,75,8.75,CA,1702839624
87,almeirim,-1.5233,-52.5817,34.31,45,71,2.2,BR,1702839890
88,barakani,-12.1356,44.4317,27.42,78,100,2.77,KM,1702839890
89,xining,36.6167,101.7667,-10.16,84,100,0.88,CN,1702839890
90,vorkuta,67.5,64.0,-18.1,88,97,5.95,RU,1702839890
91,klyuchi,52.2667,79.1667,-19.8,88,42,3.25,RU,1702839890
92,chonchi,-42.6128,-73.8092,11.56,71,81,1.64,CL,1702839890
93,yellowknife,62.456,-114.3525,-23.58,84,20,2.06,CA,1702839693
94,ciudad lazaro cardenas,17.9583,-102.2,29.73,63,5,3.02,MX,1702839890
95,thunder bay,48.4001,-89.3168,2.99,87,100,3.6,CA,1702839890
96,chaiya,9.3862,99.1986,26.35,83,53,2.68,TH,1702839890
97,nakamura,32.9833,132.9333,1.61,71,100,2.64,JP,1702839891
98,lompoc,34.6391,-120.4579,22.23,41,0,1.54,US,1702839891
99,neryungri,56.6709,124.6491,-34.1,98,100,2.47,RU,1702839891
100,gizo,-8.103,156.8419,27.01,76,100,3.99,SB,1702839891
101,belyy yar,53.6039,91.3903,-26.06,76,100,0.0,RU,1702839891
102,la union,-5.4,-80.75,31.42,45,21,4.91,PE,1702839891
103,princeville,45.7668,-61.2985,3.01,80,40,5.14,CA,1702839845
104,el kala,36.8956,8.4433,11.23,78,100,5.77,DZ,1702839891
105,wewak,-3.5534,143.6268,25.69,89,100,1.94,PG,1702839891
106,paka,4.6374,103.4368,25.96,94,81,1.54,MY,1702839891
107,brisas de zicatela,15.8369,-97.0419,29.29,58,40,3.6,MX,1702839891
108,palitana,21.5167,71.8333,21.17,47,16,3.92,IN,1702839891
109,kingston,17.997,-76.7936,25.53,89,75,4.63,JM,1702839868
110,avarua,-21.2078,-159.775,25.03,94,75,7.72,CK,1702839892
111,saint-joseph,-21.3667,55.6167,25.21,80,97,2.77,RE,1702839892
112,tazovsky,67.4667,78.7,-15.18,76,91,9.4,RU,1702839892
113,crucecita,-28.95,-58.9833,39.61,33,0,4.02,AR,1702839892
114,port alfred,-33.5906,26.891,19.54,93,68,3.13,ZA,1702839892
115,saudarkrokur,65.7461,-19.6394,-0.62,93,61,4.96,IS,1702839892
116,uturoa,-16.7333,-151.4333,27.18,79,97,6.49,PF,1702839892
117,balykshi,47.0667,51.8667,-7.0,86,40,7.0,KZ,1702839893
118,kone,-21.0595,164.8658,24.24,79,97,2.09,NC,1702839893
119,kapit,2.0167,112.9333,23.51,99,100,0.46,MY,1702839893
120,park forest village,40.8067,-77.9169,8.34,94,100,3.13,US,1702839893
121,badger,64.8,-147.5333,-9.05,84,100,4.63,US,1702839893
122,sitka,57.0531,-135.33,5.94,81,100,8.75,US,1702839894
123,gadzhiyevo,69.2551,33.3362,-9.19,97,84,5.29,RU,1702839894
124,ginir,7.1333,40.7,15.82,50,100,1.72,ET,1702839761
125,katsuura,35.1333,140.3,6.75,45,26,5.22,JP,1702839894
126,rongelap,11.1635,166.8941,26.79,83,100,10.89,MH,1702839894
127,ilulissat,69.2167,-51.1,-11.99,44,75,8.75,GL,1702839894
128,sinabang,2.4803,96.3801,27.26,82,100,4.07,ID,1702839895
129,lakatoro,-16.0999,167.4164,25.64,83,19,3.31,VU,1702839895
130,mossel bay,-34.1831,22.146,18.96,72,25,3.39,ZA,1702839895
131,hashtrud,37.4779,47.0508,5.49,48,100,6.44,IR,1702839895
132,rice lake,45.5061,-91.7382,1.18,93,100,5.14,US,1702839599
133,nichinan,31.6,131.3667,1.82,71,4,2.13,JP,1702839895
134,khanabad,36.6825,69.1156,6.62,74,0,1.06,AF,1702839895
135,happy valley-goose bay,53.3168,-60.3315,1.17,60,100,8.75,CA,1702839651
136,nemuro,43.3236,145.575,-1.93,66,85,9.72,JP,1702839896
137,n'djamena,12.1067,15.0444,27.98,17,15,2.57,TD,1702839896
138,faget,45.85,22.1833,0.71,89,23,0.09,RO,1702839896
139,georgetown,5.4112,100.3354,26.96,84,20,1.54,MY,1702839896
140,ilebo,-4.3167,20.5833,22.97,97,100,0.89,CD,1702839896
141,wynyard,-41.0,145.7167,12.08,78,100,1.82,AU,1702839896
142,vorgashor,67.5833,63.95,-19.1,90,97,5.62,RU,1702839896
143,midvagur,62.0511,-7.1939,8.46,76,75,4.12,FO,1702839897
144,port augusta,-32.5,137.7667,26.69,17,100,1.33,AU,1702839897
145,ixtapa,20.7,-105.2,27.57,57,40,3.09,MX,1702839897
146,jinxiang,27.4327,120.6062,4.73,77,100,4.64,CN,1702839897
147,mount isa,-20.7333,139.5,27.87,65,68,3.09,AU,1702839897
148,keflavik,64.0049,-22.5624,2.24,87,75,5.14,IS,1702839897
149,abashiri,44.0213,144.2697,-6.32,77,64,6.18,JP,1702839897
150,laojunmiao,39.8333,97.7333,-12.81,68,0,1.23,CN,1702839897
151,new norfolk,-42.7826,147.0587,13.72,79,100,0.62,AU,1702839897
152,alofi,-19.0595,-169.9187,25.94,89,100,7.2,NU,1702839898
153,turbat,26.0023,63.044,18.26,24,0,7.02,PK,1702839898
154,jamestown,42.097,-79.2353,7.79,95,100,4.63,US,1702839860
155,coeur d'alene,47.6777,-116.7805,1.49,92,100,4.63,US,1702839680
156,port-vila,-17.7338,168.3219,23.78,100,40,1.54,VU,1702839898
157,guajara,-2.9667,-57.6667,33.61,50,90,0.64,BR,1702839898
158,invercargill,-46.4,168.35,9.76,79,18,2.47,NZ,1702839898
159,olonkinbyen,70.9221,-8.7187,-1.79,71,100,2.5,SJ,1702839898
160,santiago de cao,-7.9589,-79.2392,22.07,83,20,5.66,PE,1702839898
161,flying fish cove,-10.4217,105.6791,23.82,78,40,1.54,CX,1702839898
162,remire-montjoly,4.9167,-52.2667,32.02,55,0,5.14,GF,1702839898
163,impfondo,1.6381,18.0667,25.65,49,100,0.97,CG,1702839899
164,mbanza kongo,-6.267,14.2401,21.98,96,100,0.47,AO,1702839859
165,muborak,39.2553,65.1528,6.14,63,0,4.26,UZ,1702839899
166,maceio,-9.6658,-35.7353,29.69,65,40,6.69,BR,1702839572
167,palikir - national government center,6.9248,158.1611,28.41,79,75,3.6,FM,1702839899
168,dongkan,33.9997,119.8308,-3.45,52,100,3.05,CN,1702839899
169,palmer,42.1584,-72.3287,8.81,78,100,3.6,US,1702839767
170,touros,-5.1989,-35.4608,27.8,74,99,6.53,BR,1702839899
171,weno,7.4515,151.8468,28.24,75,23,7.51,FM,1702839899
172,kuraymah,18.55,31.85,26.23,30,9,5.1,SD,1702839899
173,akobo,7.4344,3.9497,27.39,27,22,1.6,NG,1702839899
174,olbia,40.9214,9.4856,5.03,93,0,1.03,IT,1702839900
175,nar'yan-mar,67.6713,53.087,-14.38,89,94,8.94,RU,1702839900
176,lincoln city,44.9582,-124.0179,13.25,53,100,1.79,US,1702839900
177,shache,38.4167,77.2406,-5.81,43,0,0.94,CN,1702839900
178,coahuayana de hidalgo,18.7,-103.6583,31.36,52,6,2.17,MX,1702839900
179,walvis bay,-22.9575,14.5053,19.53,68,27,3.09,NA,1702839900
180,vadso,70.0744,29.7487,-7.51,86,20,6.17,NO,1702839900
181,suez,29.9737,32.5263,17.52,81,100,4.61,EG,1702839900
182,laguna,38.421,-121.4238,17.75,62,0,0.0,US,1702839901
183,auki,-8.7676,160.7034,23.93,86,87,1.81,SB,1702839901
184,afaahiti,-17.75,-149.2833,27.93,84,100,6.57,PF,1702839901
185,codrington,-38.2667,141.9667,14.35,70,100,2.99,AU,1702839901
186,monterey,36.2505,-121.2516,20.1,31,100,1.21,US,1702839690
187,estacion coahuila,32.1939,-115.0017,23.35,12,18,5.39,MX,1702839901
188,shohimardon,39.9839,71.8028,-6.57,56,6,4.83,UZ,1702839901
189,filadelfia,39.9523,-75.1638,13.49,93,100,4.12,US,1702839857
190,kavaratti,10.5669,72.642,28.28,73,100,1.64,IN,1702839901
191,azangaro,-14.9167,-70.2167,15.84,46,100,2.15,PE,1702839901
192,wietze,52.65,9.8333,8.48,90,20,4.63,DE,1702839901
193,zyryanskoye,56.8306,86.6258,-28.98,100,74,1.18,RU,1702839902
194,korla,41.7597,86.1469,-10.85,70,0,0.78,CN,1702839902
195,crane,31.3974,-102.3501,17.6,19,0,5.39,US,1702839903
196,dahanu,19.9667,72.7333,23.06,52,100,3.78,IN,1702839903
197,maloye ganyushkino,46.6,49.2667,-3.3,86,27,4.98,KZ,1702839903
198,manokwari,-0.8667,134.0833,25.93,83,100,1.99,ID,1702839903
199,ornskoldsvik,63.2909,18.7153,0.53,80,0,5.14,SE,1702839904
200,college,64.8569,-147.8028,-9.01,82,100,4.63,US,1702839904
201,carloforte,39.145,8.3058,12.1,70,18,4.05,IT,1702839904
202,nizhniy ingash,56.2,96.53,-26.55,100,98,1.37,RU,1702839904
203,kerikeri,-35.2268,173.9474,16.62,93,7,1.16,NZ,1702839905
204,hamilton,39.1834,-84.5333,12.26,78,72,2.68,US,1702839668
205,quinte west,44.1834,-77.5662,8.84,81,100,2.06,CA,1702839712
206,mocimboa,-11.3167,40.35,26.18,82,93,2.71,MZ,1702839905
207,kill devil hills,36.0307,-75.676,14.01,95,100,5.66,US,1702839905
208,basoko,1.2391,23.616,25.27,68,98,1.07,CD,1702839906
209,novyy urgal,51.0736,132.5642,-32.59,98,97,0.46,RU,1702839906
210,dudinka,69.4058,86.1778,-17.88,83,100,11.97,RU,1702839906
211,constantia,44.1833,28.65,2.61,71,100,6.03,RO,1702839906
212,alice springs,-23.7,133.8833,19.75,30,0,0.0,AU,1702839906
213,moa,20.6569,-74.9403,29.64,63,100,3.2,CU,1702839906
214,qaqortoq,60.7167,-46.0333,-11.31,95,100,2.5,GL,1702839907
215,port isabel,26.0734,-97.2086,22.02,37,0,1.54,US,1702839907
216,east london,-33.0153,27.9116,22.52,94,75,4.12,ZA,1702839907
217,kelso,46.1468,-122.9084,8.09,88,40,2.06,US,1702839907
218,homa bay,-0.5273,34.4571,21.64,80,37,1.82,KE,1702839907
219,mount gambier,-37.8333,140.7667,15.24,64,100,1.38,AU,1702839908
220,lakhipur,26.0299,90.3041,16.41,82,0,0.88,IN,1702839908
221,kutum,14.2,24.6667,19.33,32,13,4.08,SD,1702839908
222,nova praha,48.5682,32.9027,2.43,98,100,5.27,UA,1702839908
223,petropavlovsk-kamchatsky,53.0452,158.6483,-0.67,91,100,12.96,RU,1702839908
224,islamkot,24.6997,70.177,19.88,25,2,4.86,PK,1702839908
225,bikramganj,25.2,84.25,14.84,36,61,2.73,IN,1702839909
226,nova vicosa,-17.8919,-39.3719,27.94,67,18,4.45,BR,1702839909
227,gornozavodsk,58.3758,58.3211,-13.96,94,100,3.72,RU,1702839909
228,abadan,30.3392,48.3043,12.97,82,100,0.0,IR,1702839909
229,san andres,12.5847,-81.7006,29.01,74,40,5.66,CO,1702839909
230,undurkhaan,47.3194,110.6556,-25.07,86,100,0.74,MN,1702839909
231,mweka,-4.85,21.5667,21.63,97,100,0.49,CD,1702839909
232,lerwick,60.1545,-1.1494,9.0,92,100,5.84,GB,1702839910
233,mar del plata,-38.0023,-57.5575,27.13,61,75,3.6,AR,1702839836
234,bronte,37.7895,14.8342,10.01,91,46,1.78,IT,1702839910
235,pedro carbo,-1.8333,-80.2333,30.86,60,86,1.89,EC,1702839910
236,buchanan,5.8808,-10.0467,26.73,77,96,3.28,LR,1702839910
237,chibougamau,49.9168,-74.3659,2.79,75,75,8.23,CA,1702839910
238,howard springs,-12.497,131.047,28.95,90,100,2.38,AU,1702839911
239,kapa'a,22.0752,-159.319,21.99,86,43,0.45,US,1702839659
240,inhambane,-23.865,35.3833,25.99,94,75,0.0,MZ,1702839911
241,morant bay,17.8815,-76.4093,25.79,85,58,3.65,JM,1702839911
242,bredasdorp,-34.5322,20.0403,18.26,73,0,2.25,ZA,1702839911
243,sao raimundo nonato,-9.0153,-42.6994,34.6,28,97,2.73,BR,1702839911
244,kirensk,57.7853,108.1119,-28.28,98,100,0.77,RU,1702839911
245,mugia,43.1041,-9.2179,7.73,75,0,2.61,ES,1702839911
246,machico,32.7,-16.7667,19.35,73,40,4.63,PT,1702839912
247,tralee,52.2704,-9.7026,11.63,97,100,3.03,IE,1702839912
248,porbandar,21.6422,69.6093,21.96,38,83,5.55,IN,1702839912
249,ilomantsi,62.6716,30.9328,-1.28,90,99,5.0,FI,1702839912
250,pacasmayo,-7.4006,-79.5714,23.84,73,55,6.88,PE,1702839912
251,namibe,-15.1961,12.1522,21.86,75,35,5.3,AO,1702839912
252,muravlenko,63.7898,74.523,-14.84,73,100,12.25,RU,1702839742
253,port mathurin,-19.6833,63.4167,26.61,78,99,6.35,MU,1702839913
254,mahina,-17.5065,-149.489,28.87,65,75,1.54,PF,1702839913
255,fort bragg,35.139,-79.006,13.91,95,100,8.23,US,1702839913
256,antofagasta,-23.65,-70.4,21.6,69,28,5.65,CL,1702839913
257,hualien city,23.9769,121.6044,17.64,87,96,2.29,TW,1702839913
258,hpa-an,16.8906,97.6333,22.48,73,9,0.79,MM,1702839913
259,sidney,-33.8679,151.2073,20.95,89,85,3.09,AU,1702839886
260,harlingen,26.1906,-97.6961,21.78,32,0,2.06,US,1702839676
261,nuuk,64.1835,-51.7216,-6.66,63,100,9.26,GL,1702839914
262,ontario,34.0633,-117.6509,25.61,18,75,4.12,US,1702839678
263,horta,38.5333,-28.6333,18.9,97,75,6.26,PT,1702839914
264,ridder,50.355,83.5133,-20.15,76,2,2.57,KZ,1702839914
265,minas de marcona,-15.2119,-75.1103,21.47,64,76,7.26,PE,1702839914
266,zaragoza,41.6561,-0.8773,8.34,69,0,2.57,ES,1702839914
267,lata,40.1629,-8.3327,12.67,70,0,1.27,PT,1702839915
268,mwene-ditu,-7.0,23.45,20.17,97,100,1.4,CD,1702839915
269,port saint john's,-31.6229,29.5448,23.03,94,9,6.76,ZA,1702839915
270,malango,-2.9627,119.9001,19.73,97,87,1.38,ID,1702839915
271,penzance,50.1186,-5.5371,11.38,90,100,9.58,GB,1702839915
272,qusar,41.4273,48.4289,-2.21,93,100,0.65,AZ,1702839915
273,palembang,-2.9167,104.7458,25.05,100,36,1.03,ID,1702839915
274,simanggang,1.2472,111.4528,25.01,94,100,0.0,MY,1702839915
275,saint-pierre,-21.3393,55.4781,25.82,69,0,2.06,RE,1702839916
276,kailua-kona,19.6406,-155.9956,24.98,59,0,4.12,US,1702839805
277,nova xavantina,-14.6667,-52.35,38.43,17,99,0.74,BR,1702839872
278,colonia,50.9333,6.95,7.55,89,0,1.03,DE,1702839730
279,cabedelo,-6.9811,-34.8339,29.37,71,94,5.58,BR,1702839916
280,saipan,15.1355,145.701,26.39,89,100,6.69,MP,1702839916
281,sandnessjoen,66.0217,12.6316,4.18,81,75,2.06,NO,1702839796
282,diedorf,48.35,10.7667,0.98,96,40,2.57,DE,1702839916
283,bugene,-1.5911,31.1403,17.1,84,93,0.74,TZ,1702839916
284,chaplygin,53.2432,39.9629,0.19,88,100,6.23,RU,1702839917
285,talnakh,69.4865,88.3972,-16.46,80,100,7.57,RU,1702839917
286,tulay na lupa,14.0934,122.7862,23.65,93,97,5.37,PH,1702839917
287,claremont,34.0967,-117.7198,25.29,18,0,3.6,US,1702839621
288,puerto ayora,-0.7393,-90.3518,29.98,86,65,4.02,EC,1702839917
289,smithers,54.7804,-127.1743,-6.82,93,100,1.54,CA,1702839917
290,oranjemund,-28.55,16.4333,16.19,88,0,5.31,NA,1702839917
291,haiku-pauwela,20.9219,-156.3051,22.8,75,75,5.14,US,1702839918
292,petrolina,-9.3986,-40.5008,32.03,37,40,4.12,BR,1702839743
293,wareham,50.6889,-2.1104,11.72,83,28,1.34,GB,1702839801
294,dalbandin,28.8947,64.4101,10.08,39,0,2.68,PK,1702839683
295,adiake,5.2863,-3.304,26.99,77,15,2.84,CI,1702839918
296,preobrazheniye,42.9019,133.9064,-16.25,62,1,5.64,RU,1702839918
297,al ghayzah,16.2079,52.176,22.26,43,0,4.2,YE,1702839918
298,novodvinsk,64.4165,40.8122,-6.14,91,100,3.44,RU,1702839918
299,faya-largeau,17.9257,19.1043,22.36,20,1,8.56,TD,1702839919
300,lautoka,-17.6167,177.4667,25.92,83,75,1.54,FJ,1702839919
301,kurkino,53.4257,38.6582,0.73,84,100,7.97,RU,1702839919
302,hanceville,34.0607,-86.7675,12.57,74,99,4.52,US,1702839919
303,rovnoye,50.7765,46.0509,-3.27,89,93,9.58,RU,1702839919
304,nadym,65.5333,72.5167,-14.06,77,96,11.52,RU,1702839919
305,prado,-17.3411,-39.2208,27.74,67,0,3.8,BR,1702839920
306,emmett,43.8735,-116.4993,0.65,53,8,1.38,US,1702839920
307,ust-tsilma,65.441,52.1498,-14.43,90,100,4.93,RU,1702839920
308,ust-nera,64.5667,143.2,-34.77,100,99,1.18,RU,1702839920
309,marechal candido rondon,-24.5561,-54.0567,33.21,46,0,3.17,BR,1702839921
310,hadibu,12.65,54.0333,24.49,76,96,7.9,YE,1702839921
311,san patricio,28.017,-97.5169,19.4,36,6,0.6,US,1702839921
312,vila velha,-20.3297,-40.2925,29.97,62,20,5.14,BR,1702839921
313,taunggyi,20.7833,97.0333,11.06,85,7,1.05,MM,1702839922
314,fortuna,40.5982,-124.1573,10.19,100,100,6.69,US,1702839922
315,shubarshi,48.5872,57.1869,-4.84,97,100,0.6,KZ,1702839922
316,necochea,-38.5473,-58.7368,23.28,59,69,7.24,AR,1702839922
317,nogliki,51.8333,143.1667,-18.7,96,100,7.6,RU,1702839922
318,yazman,29.1212,71.7446,15.99,32,0,3.6,PK,1702839922
319,sanya,18.2431,109.505,23.09,73,0,2.0,CN,1702839922
320,cole harbour,44.6724,-63.4751,4.98,81,100,2.24,CA,1702839923
321,jackson,42.4165,-122.8345,13.58,86,0,0.0,US,1702839923
322,sinjai,-5.1241,120.253,24.59,85,100,1.25,ID,1702839923
323,juan de ayolas,-27.4,-56.9,37.98,38,0,3.51,PY,1702839923
324,alenquer,-1.9417,-54.7383,35.42,36,56,2.38,BR,1702839923
325,bratsk,56.1325,101.6142,-32.73,93,100,3.01,RU,1702839924
326,cooper's town,26.8667,-77.5167,24.08,87,29,14.99,BS,1702839924
327,geraldton,-28.7667,114.6,20.23,83,100,5.66,AU,1702839924
328,tamanrasset,22.785,5.5228,13.95,28,0,2.06,DZ,1702839924
329,herzberg,51.6869,13.2202,6.71,81,75,4.12,DE,1702839924
330,kitimat,54.0524,-128.6534,-1.79,90,100,0.26,CA,1702839924
331,hithadhoo,-0.6,73.0833,28.81,74,14,6.18,MV,1702839925
332,letterkenny,54.95,-7.7333,12.96,93,100,3.67,IE,1702839925
333,yeniseysk,58.4497,92.1703,-32.91,100,14,0.55,RU,1702839925
334,itoman,26.1247,127.6694,16.21,72,53,5.14,JP,1702839925
335,quellon,-43.1167,-73.6167,10.86,72,70,2.24,CL,1702839926
336,kargasok,59.0556,80.8572,-22.8,91,61,1.34,RU,1702839926
337,zonguldak,41.25,31.8333,0.21,84,6,0.92,TR,1702839926
338,ust'-ilimsk,58.0006,102.6619,-34.76,100,100,0.65,RU,1702839926
339,altamira,-3.2033,-52.2064,36.05,49,75,2.57,BR,1702839926
340,xiamen,24.4798,118.0819,12.03,71,100,3.0,CN,1702839927
341,sogndal,61.2283,7.1003,7.21,100,75,2.06,NO,1702839927
342,medemblik,52.7687,5.1062,10.01,86,76,4.02,NL,1702839927
343,mournies,35.4764,24.0092,13.24,76,75,6.17,GR,1702839928
344,grambling,32.5276,-92.714,13.72,38,2,2.72,US,1702839928
345,san luis de la loma,17.2706,-100.8939,29.82,62,4,3.43,MX,1702839929
346,christchurch,-43.5333,172.6333,15.53,82,100,1.54,NZ,1702839376
347,tozkhurmato,34.8905,44.6299,14.56,50,13,3.03,IQ,1702839929
348,noumea,-22.2763,166.4572,26.67,99,95,4.85,NC,1702839911
349,tatarbunary,45.8373,29.6142,5.54,65,100,4.26,UA,1702839930
350,north platte,41.1239,-100.7654,14.58,33,0,3.58,US,1702839930
351,hami,42.8,93.45,-13.88,73,0,0.78,CN,1702839931
352,n'zeto,-7.2312,12.8666,25.55,92,100,2.04,AO,1702839931
353,mount pearl,47.5166,-52.7813,-0.31,64,40,8.23,CA,1702839931
354,abalak,58.1286,68.5944,-12.04,87,100,5.89,RU,1702839931
355,carnarvon,-24.8667,113.6333,21.71,78,26,6.75,AU,1702839932
356,puerto baquerizo moreno,-0.9,-89.6,28.55,70,75,4.12,EC,1702839932
357,simcoe,42.8334,-80.2997,6.74,93,100,7.94,CA,1702839932
358,tongliao,43.6125,122.2653,-21.29,84,8,2.59,CN,1702839932
359,aripuana,-9.1667,-60.6333,32.55,48,100,1.26,BR,1702839779
360,portland,45.5234,-122.6762,8.43,73,89,7.15,US,1702839424
361,tabou,4.423,-7.3528,27.4,79,5,3.18,CI,1702839932
362,san jose del guaviare,2.5729,-72.6459,24.63,92,100,0.59,CO,1702839932
363,meadow lake,34.8014,-106.5436,11.78,45,62,3.69,US,1702839933
364,partenit,44.578,34.3446,5.87,79,96,2.62,UA,1702839933
365,repalle,16.0167,80.85,22.23,90,86,2.28,IN,1702839933
366,arraial do cabo,-22.9661,-42.0278,29.98,78,40,8.23,BR,1702839933
367,alzamay,55.5562,98.6644,-20.88,93,100,3.47,RU,1702839934
368,camabatela,-8.1881,15.375,18.9,97,100,0.78,AO,1702839934
369,slave lake,55.2834,-114.769,-6.01,68,0,2.06,CA,1702839696
370,linxia chengguanzhen,35.6003,103.2064,-8.54,75,100,0.58,CN,1702839934
371,farrukhnagar,17.0778,78.2011,18.84,59,17,3.16,IN,1702839934
372,qaisumah,28.3112,46.1273,11.98,37,0,0.0,SA,1702839934
373,valley city,46.9233,-98.0032,1.29,80,75,6.69,US,1702839935
374,mwinilunga,-11.7358,24.4293,19.43,85,100,1.05,ZM,1702839935
375,pekanbaru,0.5333,101.45,27.18,89,40,0.0,ID,1702839935
376,cidreira,-30.1811,-50.2056,26.29,78,54,6.73,BR,1702839935
377,campo gallo,-26.5833,-62.85,42.85,21,84,6.5,AR,1702839935
378,port lincoln,-34.7333,135.8667,19.98,72,100,3.06,AU,1702839935
379,kemise,10.7167,39.8667,17.95,61,96,0.56,ET,1702839936
380,la'ie,21.6477,-157.9253,22.56,65,81,7.11,US,1702839936
381,nyurba,63.2842,118.3319,-43.85,100,96,1.31,RU,1702839936
382,galle,6.0367,80.217,24.86,91,95,4.51,LK,1702839936
383,laascaanood,8.4774,47.3597,21.83,52,49,4.94,SO,1702839936
384,mazagao,-0.115,-51.2894,28.03,44,48,3.21,BR,1702839936
385,meadow lakes,61.6247,-149.6011,1.47,95,100,2.57,US,1702839936
386,beaufort,5.3473,115.7455,23.71,92,100,1.49,MY,1702839936
387,saint-jean-de-monts,46.7833,-2.0667,7.11,70,0,0.38,FR,1702839937
388,ulladulla,-35.35,150.4667,18.76,91,43,1.54,AU,1702839937
389,lazaro cardenas,17.9583,-102.2,29.73,63,5,3.02,MX,1702839884
390,pemangkat,1.1667,108.9667,25.8,88,97,2.53,ID,1702839937
391,hobyo,5.3505,48.5268,26.04,76,11,11.67,SO,1702839937
392,la ronge,55.1001,-105.2842,-13.86,72,75,6.69,CA,1702839937
393,banff,51.1762,-115.5698,-0.13,80,98,2.57,CA,1702839867
394,inarajan village,13.2736,144.7484,27.08,94,98,9.46,GU,1702839937
395,magadan,59.5667,150.8,-21.47,85,54,6.79,RU,1702839938
396,vuktyl,63.8567,57.3094,-12.22,90,100,5.1,RU,1702839938
397,pijino del carmen,9.3291,-74.453,32.56,58,46,1.32,CO,1702839938
398,qusmuryn,52.4503,64.6311,-6.65,94,100,5.04,KZ,1702839938
399,cururupu,-1.8283,-44.8683,30.26,61,100,2.97,BR,1702839938
400,suva,-18.1416,178.4415,27.71,83,75,4.63,FJ,1702839938
401,atafu village,-8.5421,-172.5159,28.97,72,16,2.54,TK,1702839938
402,chebba,35.2372,11.115,16.26,67,2,9.71,TN,1702839938
403,gudur,14.1333,79.85,23.81,82,89,3.78,IN,1702839939
404,uribia,11.7139,-72.266,32.8,51,61,4.37,CO,1702839939
405,sale,34.0389,-6.8166,17.58,35,0,0.0,MA,1702839939
406,arroyo,41.6096,-4.7969,6.23,66,100,1.54,ES,1702839939
407,huancavelica,-12.7667,-74.9833,11.68,59,99,3.26,PE,1702839939
408,hammerfest,70.6634,23.6821,1.25,86,75,3.6,NO,1702839939
409,jiuquan,39.7432,98.5174,-14.08,83,3,1.41,CN,1702839939
410,pisco,-13.7,-76.2167,24.03,73,0,5.66,PE,1702839916
411,ampanihy,-24.7,44.75,24.02,82,100,3.94,MG,1702839940
412,bandarbeyla,9.4942,50.8122,24.62,71,99,12.27,SO,1702839940
413,ulsteinvik,62.3432,5.8487,9.62,95,100,5.81,NO,1702839940
414,grajau,-5.8194,-46.1386,30.68,57,100,2.71,BR,1702839940
415,chapada dos guimaraes,-15.4606,-55.7497,31.81,14,81,1.68,BR,1702839940
416,sao domingos do maranhao,-5.5758,-44.3853,34.21,38,100,1.78,BR,1702839940
417,bel ombre,-4.6167,55.4167,26.91,78,20,1.03,SC,1702839940
418,luderitz,-26.6481,15.1594,17.33,73,0,7.91,NA,1702839940
419,argostolion,38.1811,20.489,9.86,69,0,2.84,GR,1702839941
420,trincomalee,8.5711,81.2335,26.62,84,100,5.38,LK,1702839941
421,namie,37.4833,141.0,1.51,87,87,4.51,JP,1702839941
422,pagar alam,-4.0167,103.2667,20.57,99,59,0.74,ID,1702839941
423,swan hill,-35.3378,143.5544,20.87,27,100,3.19,AU,1702839941
424,boyolangu,-8.1181,111.8935,23.63,78,87,1.51,ID,1702839941
425,gataia,45.4311,21.43,-0.08,84,40,1.31,RO,1702839941
426,katabu,-4.9333,122.5167,25.13,91,100,2.14,ID,1702839941
427,mil'kovo,55.6078,37.7956,1.73,84,19,6.86,RU,1702839941
428,mermoz boabab,14.7065,-17.4758,29.31,57,100,2.06,SN,1702839942
429,tajerouine,35.8917,8.5528,7.32,90,100,5.37,TN,1702839942
430,prince rupert,54.3161,-130.3201,4.83,88,100,2.57,CA,1702839645
431,conde,-7.2597,-34.9075,29.7,62,20,6.17,BR,1702839649
432,san antonio de pale,-1.4014,5.6325,27.47,79,100,3.41,GQ,1702839942
433,hun,29.1268,15.9477,13.55,43,0,3.43,LY,1702839942
434,metlaoui,34.3208,8.4016,9.6,65,100,7.47,TN,1702839943
435,wuwei,37.9281,102.6414,-10.1,73,100,1.65,CN,1702839943
436,orange walk,17.8333,-88.8333,26.97,50,53,3.24,BZ,1702839919
437,bom jardim,-7.7958,-35.5872,29.89,50,84,6.45,BR,1702839943
438,xuanzhou,30.9525,118.7553,-0.25,46,100,4.9,CN,1702839943
439,deschutes river woods,43.9915,-121.3584,10.38,56,0,0.0,US,1702839943
440,mogocha,53.7333,119.7667,-33.57,98,30,1.53,RU,1702839943
441,metlili chaamba,32.2667,3.6333,9.52,53,40,2.57,DZ,1702839943
442,vilalba,43.3,-7.6833,1.72,88,0,0.04,ES,1702839944
443,medyn',54.9692,35.8586,0.42,98,100,6.26,RU,1702839944
444,grand gaube,-20.0064,57.6608,26.88,85,89,2.68,MU,1702839944
445,boa vista,2.8197,-60.6733,31.99,51,75,5.66,BR,1702839944
446,broome,42.2506,-75.833,9.83,92,100,7.2,US,1702839944
447,fort st. john,56.2499,-120.8529,-4.06,58,75,3.6,CA,1702839662
448,kodinar,20.7903,70.7031,22.03,40,14,5.72,IN,1702839944
449,chust,41.0094,71.2287,-0.34,62,0,0.94,UZ,1702839945
450,sainte-menehould,49.0833,4.9,1.94,87,0,1.8,FR,1702839945
451,okhotsk,59.3833,143.3,-21.06,84,13,9.36,RU,1702839945
452,veraval,20.9,70.3667,22.23,41,31,6.2,IN,1702839945
453,miracema do tocantins,-9.5618,-48.3967,30.74,54,73,4.16,BR,1702839945
454,queenstown,-31.8976,26.8753,20.09,73,0,3.1,ZA,1702839945
455,anna regina,7.2644,-58.5077,28.91,66,31,3.4,GY,1702839946
456,clinton,42.587,-82.9199,8.3,92,100,4.12,US,1702839774
457,kulachi,31.9286,70.4592,14.21,33,0,1.49,PK,1702839946
458,ingeniero jacobacci,-41.3427,-69.5448,11.37,40,100,9.81,AR,1702839946
459,kaihua,23.3687,104.28,9.96,92,100,3.75,CN,1702839923
460,nagqu,31.5,92.0,-21.35,79,0,1.39,CN,1702839946
461,tres pontas,-21.3667,-45.5125,30.73,38,99,2.31,BR,1702839946
462,camana,-16.6228,-72.7111,22.37,84,100,3.87,PE,1702839946
463,kruisfontein,-34.0033,24.7314,18.82,85,1,5.29,ZA,1702839946
464,tocache,-8.1842,-76.5125,26.28,86,100,0.92,PE,1702839946
465,egilsstadir,65.2653,-14.3948,2.95,70,0,8.23,IS,1702839798
466,tulln,48.3283,16.0586,7.09,74,20,3.6,AT,1702839947
467,manay,7.215,126.5397,25.99,84,100,1.68,PH,1702839947
468,santanyi,39.3546,3.1291,13.23,66,17,6.07,ES,1702839947
469,bosaso,11.2842,49.1816,23.96,60,91,4.54,SO,1702839947
470,mangrol,21.1167,70.1167,21.33,40,89,5.94,IN,1702839947
471,berdigestyakh,62.0989,126.6992,-42.47,100,82,0.85,RU,1702839947
472,saint-philippe,-21.3585,55.7679,25.77,80,100,5.06,RE,1702839947
473,porto novo,6.4965,2.6036,28.9,72,6,2.94,BJ,1702839905
474,novyye lapsary,56.0685,47.2142,-5.16,94,100,8.0,RU,1702839947
475,kayangel,8.0823,134.7173,28.66,75,100,9.45,PW,1702839947
476,port hueneme,34.1478,-119.1951,26.04,25,0,2.06,US,1702839948
477,breaux bridge,30.2735,-91.8993,15.02,57,0,5.38,US,1702839948
478,atar,20.5169,-13.0499,21.03,23,11,11.32,MR,1702839948
479,serdar,38.9764,56.2757,10.47,49,5,3.69,TM,1702839948
480,tura,25.5198,90.2201,14.41,87,0,1.05,IN,1702839948
481,xai-xai,-25.0519,33.6442,23.49,96,100,2.56,MZ,1702839948
482,polyarnyy,69.1989,33.4478,-8.0,96,87,5.57,RU,1702839948
483,mendeleyevsk,55.9082,52.2905,-8.42,94,98,5.58,RU,1702839948
484,kismayo,-0.3582,42.5454,27.95,82,66,6.97,SO,1702839949
485,omdurman,15.6445,32.4777,28.73,24,7,5.14,SD,1702839949
486,moranbah,-22.0016,148.0466,22.51,72,3,0.92,AU,1702839949
487,bolivar,37.6145,-93.4105,11.74,65,42,4.65,US,1702839949
488,praia,14.9215,-23.5087,25.3,65,0,7.2,CV,1702839949
489,ha giang,22.8333,104.9833,12.92,94,100,0.89,VN,1702839949
490,akdepe,42.0551,59.3788,1.05,88,100,3.53,TM,1702839949
491,saurimo,-9.6608,20.3916,20.25,96,100,1.13,AO,1702839949
492,rundu,-17.9333,19.7667,22.79,79,100,3.21,NA,1702839949
493,huayin,34.5675,110.0921,-2.67,74,93,1.52,CN,1702839950
494,mukalla,14.5425,49.1242,22.23,30,6,2.67,YE,1702839950
495,san julian,21.0167,-102.1667,17.24,41,94,1.78,MX,1702839950
496,cukai,4.25,103.4167,25.97,92,100,3.04,MY,1702839950
497,ambovombe,-25.1667,46.0833,23.57,90,100,3.19,MG,1702839950
498,merizo village,13.2658,144.6691,26.85,94,99,9.51,GU,1702839950
499,sebastopol,44.6,33.5333,7.22,54,100,7.04,UA,1702839950
500,kendari,-3.945,122.4989,24.32,94,100,2.03,ID,1702839951
501,volkhov,59.9258,32.3382,-0.33,89,34,4.51,RU,1702839951
502,sonegaon,20.65,78.6833,18.07,59,2,2.93,IN,1702839951
503,piton saint-leu,-21.2196,55.3151,24.06,69,0,2.06,RE,1702839951
504,craig,40.5153,-107.5464,0.97,55,0,0.0,US,1702839924
505,tyukalinsk,55.8732,72.1967,-15.34,81,100,8.89,RU,1702839951
506,kudahuvadhoo,2.6708,72.8944,28.49,74,97,4.48,MV,1702839951
507,bridgewater,44.3835,-64.5155,5.79,79,100,6.69,CA,1702839924
508,rio segundo,-31.6526,-63.9099,23.81,53,82,6.38,AR,1702839952
509,rondonopolis,-16.4708,-54.6356,42.43,12,21,1.27,BR,1702839770
510,berezovyy,51.6667,135.7,-19.55,92,100,1.79,RU,1702839952
511,kuanda,56.3161,116.0806,-33.76,96,79,0.24,RU,1702839952
512,san pedro,14.35,121.0167,25.57,90,100,2.06,PH,1702839952
513,awjilah,29.1081,21.2869,15.75,51,0,3.17,LY,1702839952
514,eisen,36.8217,128.6308,-9.18,41,72,1.38,KR,1702839952
515,jalpaiguri,26.5167,88.7333,16.94,69,3,0.96,IN,1702839677
516,lock haven,41.137,-77.4469,9.83,99,100,1.86,US,1702839952
517,parkersburg,39.2667,-81.5615,9.04,94,100,2.06,US,1702839952
518,ratnagiri,16.9833,73.3,27.64,61,99,2.25,IN,1702839953
519,tromso,69.6496,18.957,3.01,70,75,6.69,NO,1702839953
520,el calafate,-50.3408,-72.2768,12.47,39,8,4.25,AR,1702839953
521,ad dilam,23.9915,47.1627,16.23,67,0,1.13,SA,1702839953
522,lae,-6.7221,146.9847,24.92,91,100,1.37,PG,1702839953
523,safi,32.1667,-8.8333,12.37,64,0,1.92,MA,1702839953
524,lengshuitan,26.4111,111.5956,2.1,64,100,2.49,CN,1702839923
525,trinidad,-14.8333,-64.9,32.99,62,40,6.17,BO,1702839954
526,kaedi,16.1465,-13.5047,25.8,12,100,5.31,MR,1702839954
527,viqueque,-8.8673,126.3658,26.13,89,95,2.79,TL,1702839954
528,kabale,-1.2486,29.9899,16.21,91,100,0.83,UG,1702839954
529,farias brito,-6.9306,-39.5656,35.38,28,100,1.66,BR,1702839954
530,fukuecho,32.6881,128.8419,5.96,68,98,8.91,JP,1702839954
531,bathsheba,13.2167,-59.5167,28.34,83,40,6.17,BB,1702839954
532,tirana,41.3275,19.8189,2.49,87,0,0.0,AL,1702839699
533,piti village,13.4626,144.6933,27.03,90,40,5.14,GU,1702839955
534,el galpon,-25.3807,-64.6526,41.91,24,26,4.39,AR,1702839955
535,cartagena,10.3997,-75.5144,31.79,66,20,3.09,CO,1702839736
536,khanpur mahar,27.8436,69.4137,16.64,31,0,4.11,PK,1702839955
537,choibalsan,48.0667,114.5,-29.54,89,17,2.63,MN,1702839955
538,dongyang,29.2678,120.2253,1.1,48,100,1.46,CN,1702839955
539,lagoa,39.05,-27.9833,17.9,90,100,9.73,PT,1702839955
540,guiyang,26.5833,106.7167,-1.73,100,100,3.0,CN,1702839723
541,tshabong,-26.05,22.45,25.97,52,100,10.96,BW,1702839955
542,magistral'nyy,56.1725,107.4458,-28.68,98,100,0.55,RU,1702839956
543,belmonte,-15.8631,-38.8828,27.81,66,23,4.15,BR,1702839956
544,boende,-0.2167,20.8667,26.33,65,71,1.19,CD,1702839956
545,magong,23.5654,119.5863,17.84,84,100,0.45,TW,1702839956
546,dabrowa bialostocka,53.6536,23.3479,5.53,95,100,7.99,PL,1702839956
547,palora,-1.7,-77.9333,23.06,92,96,1.24,EC,1702839956
548,san juan bautista,-14.0108,-75.7358,31.02,41,29,6.26,PE,1702839956
549,shingu,33.7333,135.9833,2.09,70,19,2.84,JP,1702839956
550,smirnykh,49.75,142.8333,-15.49,83,100,3.76,RU,1702839957
551,kununurra,-15.7667,128.7333,26.99,94,98,0.0,AU,1702839957
552,dabakala,8.3667,-4.4333,28.72,21,100,1.17,CI,1702839957
553,ha'il,27.5219,41.6907,11.01,40,0,2.06,SA,1702839957
554,ceeldheer,3.8488,47.1806,25.91,74,66,9.63,SO,1702839957
555,twin falls,42.3505,-114.6445,-0.06,93,75,2.57,US,1702839957
556,nachingwea,-10.3833,38.7667,23.65,82,100,1.95,TZ,1702839957
557,hatillo,18.4863,-66.8254,30.85,84,29,3.13,PR,1702839957
558,sona,45.4388,10.8255,6.85,93,0,1.03,IT,1702839957
559,tostado,-29.232,-61.7692,37.65,41,100,0.74,AR,1702839957
560,fortaleza,-3.7227,-38.5247,30.07,76,20,5.66,BR,1702839903
561,bhabhua,25.05,83.6167,14.28,43,50,1.98,IN,1702839958
562,la foa,-21.7108,165.8276,24.39,77,92,2.03,NC,1702839958
563,mont-tremblant,46.1949,-74.6264,4.21,80,100,0.51,CA,1702839739
564,lionel town,17.8101,-77.2406,25.94,77,91,3.13,JM,1702839958
565,bubaque,11.2833,-15.8333,27.5,55,100,0.81,GW,1702839958
566,shitanjing,39.2342,106.3439,-10.73,56,96,3.37,CN,1702839922
567,sao joao da barra,-21.6403,-41.0511,30.05,76,18,5.89,BR,1702839918
568,tucurui,-3.7661,-49.6725,32.51,55,91,0.61,BR,1702839877
569,vanimo,-2.6741,141.3028,25.36,91,100,1.58,PG,1702839695
570,sievi,63.9,24.5,0.4,86,100,5.82,FI,1702839958
571,kharp,66.8014,65.8081,-19.0,100,100,2.28,RU,1702839958
572,amos,48.5669,-78.1162,4.35,84,100,5.73,CA,1702839958
573,ialibu,-6.2821,143.9935,12.94,94,98,1.36,PG,1702839959
574,santa rosa de osos,6.6474,-75.4603,21.26,85,100,0.75,CO,1702839959
575,kirakira,-10.4544,161.9205,24.28,80,100,1.12,SB,1702839959
576,ishigaki,24.3448,124.1572,17.07,88,100,7.72,JP,1702839959
577,lijiang,26.8688,100.2207,1.06,79,0,2.88,CN,1702839959
578,greymouth,-42.4667,171.2,14.27,90,80,2.64,NZ,1702839959
579,dubovskoye,47.4092,42.7575,-0.4,84,99,7.04,RU,1702839959
580,san sebastian de la gomera,28.0916,-17.1133,20.21,48,0,5.14,ES,1702839959
581,esikhaleni,-28.871,31.8996,23.01,84,32,5.97,ZA,1702839959
582,borba,-4.3878,-59.5939,29.75,68,100,1.82,BR,1702839959
583,springfield,37.2153,-93.2982,12.28,57,0,4.02,US,1702839940
584,argo,37.6333,22.7333,10.44,80,5,2.02,GR,1702839960
585,murzuq,25.9155,13.9184,13.71,42,0,4.41,LY,1702839798
586,carutapera,-1.195,-46.02,29.76,66,100,3.32,BR,1702839960
587,tanumah,27.1,44.1333,14.6,35,2,2.13,SA,1702839960
588,boguchar,49.9358,40.545,0.61,98,100,8.07,RU,1702839960
589,jarocin,51.9727,17.5026,4.84,87,100,6.89,PL,1702839960
590,taroa,8.7058,171.2275,27.34,80,96,11.59,MH,1702839960
591,amga,60.8953,131.9608,-44.27,100,73,0.81,RU,1702839960
592,newman,37.3138,-121.0208,14.47,36,100,1.25,US,1702839960
593,nsanje,-16.92,35.262,28.36,73,89,3.69,MW,1702839960
594,jalpan,21.2333,-99.4833,23.11,48,63,2.07,MX,1702839960
595,kolonia town,6.964,158.206,29.0,79,75,3.6,FM,1702839960
596,yuzhno-kurilsk,44.0306,145.8556,-2.57,76,100,11.08,RU,1702839961
